{"type":"FeatureCollection","features":[{"type":"Feature","properties":{"BridgeNumber":"B548","BridgeName":"Rwizi Bridge","LinkID":"A002_Link08","RoadNumber":"A002","RoadClass":"A","RoadDescrPrincipal":"Mbarara(Bushenyi Junction)  - Ntungamo","Region":"Southern","Station":"Mbarara","OverallCondition":"Unknown","OverallConditionRating":null,"AADT2026":3048.58},"geometry":{"type":"Point","coordinates":[30.645356,-0.618523]}},{"type":"Feature","properties":{"BridgeNumber":"B001","BridgeName":"Kibimba","LinkID":"A001_Link08","RoadNumber":"A001","RoadClass":"A","RoadDescrPrincipal":"Nakalama - Bugiri - Namutere","Region":"Eastern","Station":"Jinja","OverallCondition":"Good","OverallConditionRating":7,"AADT2026":12039.86},"geometry":{"type":"Point","coordinates":[33.51851,0.62873]}},{"type":"Feature","properties":{"BridgeNumber":"B002","BridgeName":"Malaba","LinkID":"A001_Link11","RoadNumber":"A001","RoadClass":"A","RoadDescrPrincipal":"Tororo junction - Malaba(Uganda/Kenya border)","Region":"Eastern","Station":"Tororo","OverallCondition":"Good","OverallConditionRating":7,"AADT2026":12039.86},"geometry":{"type":"Point","coordinates":[34.17312,0.66002]}},{"type":"Feature","properties":{"BridgeNumber":"B003","BridgeName":"Busega","LinkID":"A002_Link02","RoadNumber":"A002","RoadClass":"A","RoadDescrPrincipal":"Busega - Mpigi","Region":"Central","Station":"Mpigi","OverallCondition":"Good","OverallConditionRating":7,"AADT2026":18984.68},"geometry":{"type":"Point","coordinates":[32.511283,0.302108]}},{"type":"Feature","properties":{"BridgeNumber":"B004","BridgeName":"Katonga Bridge","LinkID":"A002_Link04","RoadNumber":"A002","RoadClass":"A","RoadDescrPrincipal":"Buwama - Lukaya","Region":"Central","Station":"Mpigi","OverallCondition":"Good","OverallConditionRating":7,"AADT2026":8993.24},"geometry":{"type":"Point","coordinates":[32.00763,-0.034141]}},{"type":"Feature","properties":{"BridgeNumber":"B005","BridgeName":"Rwizi Bridge","LinkID":"A002_Link08","RoadNumber":"A002","RoadClass":"A","RoadDescrPrincipal":"Mbarara(Bushenyi Junction)  - Ntungamo","Region":"Southern","Station":"Mbarara","OverallCondition":"Satisfactory","OverallConditionRating":6,"AADT2026":3048.58},"geometry":{"type":"Point","coordinates":[30.645356,-0.618523]}},{"type":"Feature","properties":{"BridgeNumber":"B006","BridgeName":"Kamira Bridge","LinkID":"A002_Link09","RoadNumber":"A002","RoadClass":"A","RoadDescrPrincipal":"Ntungamo - Rubaale","Region":"Southern","Station":"Kabale","OverallCondition":"Good","OverallConditionRating":7,"AADT2026":2320.79},"geometry":{"type":"Point","coordinates":[30.264758,-0.884379]}},{"type":"Feature","properties":{"BridgeNumber":"B007","BridgeName":"Rubanga Bridge","LinkID":"A002_Link09","RoadNumber":"A002","RoadClass":"A","RoadDescrPrincipal":"Ntungamo - Rubaale","Region":"Southern","Station":"Kabale","OverallCondition":"Satisfactory","OverallConditionRating":6,"AADT2026":2320.79},"geometry":{"type":"Point","coordinates":[30.264751,-0.884414]}},{"type":"Feature","properties":{"BridgeNumber":"B008","BridgeName":"Katinada Bridge","LinkID":"A002_Link09","RoadNumber":"A002","RoadClass":"A","RoadDescrPrincipal":"Ntungamo - Rubaale","Region":"Southern","Station":"Kabale","OverallCondition":"Satisfactory","OverallConditionRating":6,"AADT2026":2320.79},"geometry":{"type":"Point","coordinates":[30.20008,-0.98598]}},{"type":"Feature","properties":{"BridgeNumber":"B009","BridgeName":"Rubaale - Muhanga - Kabale","LinkID":"A002_Link10","RoadNumber":"A002","RoadClass":"A","RoadDescrPrincipal":"Rubaale - Muhanga - Kabale","Region":"Southern","Station":"Kabale","OverallCondition":"Satisfactory","OverallConditionRating":6,"AADT2026":2333.2},"geometry":{"type":"Point","coordinates":[30.044739,-1.250167]}},{"type":"Feature","properties":{"BridgeNumber":"B045","BridgeName":"Bumuli Overbridge 2","LinkID":"M3_Link01","RoadNumber":"M3","RoadClass":"M","RoadDescrPrincipal":"Kampala - Entebbe Expressway","Region":"Central","Station":"Kampala","OverallCondition":"Good","OverallConditionRating":7,"AADT2026":20711.35},"geometry":{"type":"Point","coordinates":[32.517581,0.175826]}},{"type":"Feature","properties":{"BridgeNumber":"B046","BridgeName":"Source of the Nile Bridge (New Nile Bridge)","LinkID":"A001N1_Link01","RoadNumber":"A001N1","RoadClass":"A","RoadDescrPrincipal":"Njeru - Jinja (Dual Section)","Region":"Central","Station":"Kampala","OverallCondition":"Good","OverallConditionRating":7,"AADT2026":18798.83},"geometry":{"type":"Point","coordinates":[33.186628,0.439214]}},{"type":"Feature","properties":{"BridgeNumber":"B063","BridgeName":"Kee B7 Overbridge","LinkID":"M3_Link01","RoadNumber":"M3","RoadClass":"M","RoadDescrPrincipal":"Kampala - Entebbe Expressway","Region":"Central","Station":"Kampala","OverallCondition":"Good","OverallConditionRating":7,"AADT2026":20711.35},"geometry":{"type":"Point","coordinates":[32.521202,0.259571]}},{"type":"Feature","properties":{"BridgeNumber":"B064","BridgeName":"Sisa Bridge Underpass","LinkID":"M3_Link01","RoadNumber":"M3","RoadClass":"M","RoadDescrPrincipal":"Kampala - Entebbe Expressway","Region":"Central","Station":"Kampala","OverallCondition":"Good","OverallConditionRating":7,"AADT2026":20711.35},"geometry":{"type":"Point","coordinates":[32.512424,0.159395]}},{"type":"Feature","properties":{"BridgeNumber":"B010","BridgeName":"Mwanyare","LinkID":"A002_Link11","RoadNumber":"A002","RoadClass":"A","RoadDescrPrincipal":"Kabale - Katuna","Region":"Southern","Station":"Kabale","OverallCondition":"Beyond Repair","OverallConditionRating":0,"AADT2026":2333.2},"geometry":{"type":"Point","coordinates":[30.011746,-1.424762]}},{"type":"Feature","properties":{"BridgeNumber":"B065","BridgeName":"Kee B8 Overbridge","LinkID":"M3_Link01","RoadNumber":"M3","RoadClass":"M","RoadDescrPrincipal":"Kampala - Entebbe Expressway","Region":"Central","Station":"Kampala","OverallCondition":"Satisfactory","OverallConditionRating":6,"AADT2026":20711.35},"geometry":{"type":"Point","coordinates":[32.521838,0.252446]}},{"type":"Feature","properties":{"BridgeNumber":"B066","BridgeName":"Kee Over Bridge","LinkID":"M3_Link01","RoadNumber":"M3","RoadClass":"M","RoadDescrPrincipal":"Kampala - Entebbe Expressway","Region":"Central","Station":"Kampala","OverallCondition":"Good","OverallConditionRating":7,"AADT2026":20711.35},"geometry":{"type":"Point","coordinates":[32.511006,0.148477]}},{"type":"Feature","properties":{"BridgeNumber":"B011","BridgeName":"Bukoola","LinkID":"A004_Link02","RoadNumber":"A004","RoadClass":"A","RoadDescrPrincipal":"Kyotera - Mutukula","Region":"Central","Station":"Masaka","OverallCondition":"Satisfactory","OverallConditionRating":6,"AADT2026":3647.09},"geometry":{"type":"Point","coordinates":[31.488546,-0.842608]}},{"type":"Feature","properties":{"BridgeNumber":"B083","BridgeName":"Kee B9 Overbridge","LinkID":"M3_Link01","RoadNumber":"M3","RoadClass":"M","RoadDescrPrincipal":"Kampala - Entebbe Expressway","Region":"Central","Station":"Kampala","OverallCondition":"Marginal","OverallConditionRating":4,"AADT2026":20711.35},"geometry":{"type":"Point","coordinates":[32.523626,0.23241]}},{"type":"Feature","properties":{"BridgeNumber":"B084","BridgeName":"Ziiru Overbridge","LinkID":"M3_Link01","RoadNumber":"M3","RoadClass":"M","RoadDescrPrincipal":"Kampala - Entebbe Expressway","Region":"Central","Station":"Kampala","OverallCondition":"Marginal","OverallConditionRating":4,"AADT2026":20711.35},"geometry":{"type":"Point","coordinates":[32.510718,0.145173]}},{"type":"Feature","properties":{"BridgeNumber":"B012","BridgeName":"Buyala","LinkID":"A005_Link01","RoadNumber":"A005","RoadClass":"A","RoadDescrPrincipal":"Busega - Bujuuko","Region":"Central","Station":"Mpigi","OverallCondition":"Satisfactory","OverallConditionRating":6,"AADT2026":8329.03},"geometry":{"type":"Point","coordinates":[32.418442,0.329366]}},{"type":"Feature","properties":{"BridgeNumber":"B086","BridgeName":"Kajjansi Interchange Kee B10","LinkID":"M3_Link01","RoadNumber":"M3","RoadClass":"M","RoadDescrPrincipal":"Kampala - Entebbe Expressway","Region":"Central","Station":"Kampala","OverallCondition":"Good","OverallConditionRating":7,"AADT2026":20711.35},"geometry":{"type":"Point","coordinates":[32.531218,0.215266]}},{"type":"Feature","properties":{"BridgeNumber":"B273","BridgeName":"Ziiru Overbridge 2","LinkID":"M3_Link01","RoadNumber":"M3","RoadClass":"M","RoadDescrPrincipal":"Kampala - Entebbe Expressway","Region":"Central","Station":"Kampala","OverallCondition":"Good","OverallConditionRating":7,"AADT2026":20711.35},"geometry":{"type":"Point","coordinates":[32.510405,0.135803]}},{"type":"Feature","properties":{"BridgeNumber":"B013","BridgeName":"Mpanga","LinkID":"A005_Link10","RoadNumber":"A005","RoadClass":"A","RoadDescrPrincipal":"Kyenjojo - Rugombe - Fortportal","Region":"Western","Station":"Fort Portal","OverallCondition":"Good","OverallConditionRating":7,"AADT2026":3674.32},"geometry":{"type":"Point","coordinates":[30.39366,0.643257]}},{"type":"Feature","properties":{"BridgeNumber":"B132","BridgeName":"Kajjansi Interchange Kee B11","LinkID":"M3_Link01","RoadNumber":"M3","RoadClass":"M","RoadDescrPrincipal":"Kampala - Entebbe Expressway","Region":"Central","Station":"Kampala","OverallCondition":"Satisfactory","OverallConditionRating":6,"AADT2026":20711.35},"geometry":{"type":"Point","coordinates":[32.51892,0.31555]}},{"type":"Feature","properties":{"BridgeNumber":"B133","BridgeName":"Nambigirwa Bridge 1","LinkID":"M3_Link01","RoadNumber":"M3","RoadClass":"M","RoadDescrPrincipal":"Kampala - Entebbe Expressway","Region":"Central","Station":"Kampala","OverallCondition":"Satisfactory","OverallConditionRating":6,"AADT2026":20711.35},"geometry":{"type":"Point","coordinates":[32.51892,0.31555]}},{"type":"Feature","properties":{"BridgeNumber":"B014","BridgeName":"Mpanga","LinkID":"C542_Link01","RoadNumber":"C542","RoadClass":"C","RoadDescrPrincipal":"Fortportal - Kijura - Kabende Bridge-Sogahe-Kyarusozi","Region":"Western","Station":"Fort Portal","OverallCondition":"Beyond Repair","OverallConditionRating":0,"AADT2026":1151.09},"geometry":{"type":"Point","coordinates":[30.297238,0.65954]}},{"type":"Feature","properties":{"BridgeNumber":"B375","BridgeName":"Kajjansi Overbridge 1 Kee B11","LinkID":"M3_Link01","RoadNumber":"M3","RoadClass":"M","RoadDescrPrincipal":"Kampala - Entebbe Expressway","Region":"Central","Station":"Kampala","OverallCondition":"Fair","OverallConditionRating":5,"AADT2026":20711.35},"geometry":{"type":"Point","coordinates":[32.529725,0.208645]}},{"type":"Feature","properties":{"BridgeNumber":"B633","BridgeName":"Nambigirwa Bridge 2","LinkID":"M3_Link01","RoadNumber":"M3","RoadClass":"M","RoadDescrPrincipal":"Kampala - Entebbe Expressway","Region":"Central","Station":"Kampala","OverallCondition":"Fair","OverallConditionRating":5,"AADT2026":20711.35},"geometry":{"type":"Point","coordinates":[32.51145,0.126609]}},{"type":"Feature","properties":{"BridgeNumber":"B015","BridgeName":"Mpanga","LinkID":"A005_Link10","RoadNumber":"A005","RoadClass":"A","RoadDescrPrincipal":"Kyenjojo - Rugombe - Fortportal","Region":"Western","Station":"Fort Portal","OverallCondition":"Fair","OverallConditionRating":5,"AADT2026":3674.32},"geometry":{"type":"Point","coordinates":[30.277909,0.657052]}},{"type":"Feature","properties":{"BridgeNumber":"B721","BridgeName":"Kajjansi Overbridge 2 Kee B12","LinkID":"M3_Link01","RoadNumber":"M3","RoadClass":"M","RoadDescrPrincipal":"Kampala - Entebbe Expressway","Region":"Central","Station":"Kampala","OverallCondition":"Good","OverallConditionRating":7,"AADT2026":20711.35},"geometry":{"type":"Point","coordinates":[32.528892,0.20514]}},{"type":"Feature","properties":{"BridgeNumber":"B722","BridgeName":"Mpalla 1","LinkID":"C677_Link02","RoadNumber":"C677","RoadClass":"C","RoadDescrPrincipal":"Kalongo - Kitgum Matidi","Region":"Northern","Station":"Kitgum","OverallCondition":"Good","OverallConditionRating":7,"AADT2026":726.62},"geometry":{"type":"Point","coordinates":[33.270755,3.091984]}},{"type":"Feature","properties":{"BridgeNumber":"B016","BridgeName":"Rwimi","LinkID":"A005_Link11","RoadNumber":"A005","RoadClass":"A","RoadDescrPrincipal":"FortPortal - Rwimi(bridge)","Region":"Western","Station":"Fort Portal","OverallCondition":"Good","OverallConditionRating":7,"AADT2026":5246.59},"geometry":{"type":"Point","coordinates":[30.211397,0.373341]}},{"type":"Feature","properties":{"BridgeNumber":"B723","BridgeName":"Kajjansi Overbridge 3 Kee 13","LinkID":"M3_Link01","RoadNumber":"M3","RoadClass":"M","RoadDescrPrincipal":"Kampala - Entebbe Expressway","Region":"Central","Station":"Kampala","OverallCondition":"Marginal","OverallConditionRating":4,"AADT2026":20711.35},"geometry":{"type":"Point","coordinates":[32.527008,0.197212]}},{"type":"Feature","properties":{"BridgeNumber":"B017","BridgeName":"Mpalla 2","LinkID":"C963_Link02","RoadNumber":"C963","RoadClass":"C","RoadDescrPrincipal":"Lokitanyara-Loro-Amudat","Region":"North Eastern","Station":"Moroto","OverallCondition":"Marginal","OverallConditionRating":4,"AADT2026":126.84},"geometry":{"type":"Point","coordinates":[34.91421,2.317555]}},{"type":"Feature","properties":{"BridgeNumber":"B644","BridgeName":"Nsonja","LinkID":"C547_Link01","RoadNumber":"C547","RoadClass":"C","RoadDescrPrincipal":"Rwimi-Dura-Kamwenge","Region":"Western","Station":"Fort Portal","OverallCondition":"Marginal","OverallConditionRating":4,"AADT2026":3312.86},"geometry":{"type":"Point","coordinates":[30.380972,0.132079]}},{"type":"Feature","properties":{"BridgeNumber":"B767","BridgeName":"Mubuku Bridge","LinkID":"A005_Link13","RoadNumber":"A005","RoadClass":"A","RoadDescrPrincipal":"Mubuku - Kasese","Region":"Southern","Station":"Kasese","OverallCondition":"Satisfactory","OverallConditionRating":6,"AADT2026":5246.59},"geometry":{"type":"Point","coordinates":[30.117778,0.258476]}},{"type":"Feature","properties":{"BridgeNumber":"B768","BridgeName":"Mpalla 3","LinkID":"M3Int4_S1","RoadNumber":"M3","RoadClass":"M","RoadDescrPrincipal":"Mpala Interchange Slip 1","Region":"Central","Station":"Kampala","OverallCondition":"Satisfactory","OverallConditionRating":6,"AADT2026":20711.35},"geometry":{"type":"Point","coordinates":[32.51194,0.105169]}},{"type":"Feature","properties":{"BridgeNumber":"B018","BridgeName":"Mubuku Bridge","LinkID":"A005_Link13","RoadNumber":"A005","RoadClass":"A","RoadDescrPrincipal":"Mubuku - Kasese","Region":"Southern","Station":"Kasese","OverallCondition":"Satisfactory","OverallConditionRating":6,"AADT2026":5246.59},"geometry":{"type":"Point","coordinates":[30.117778,0.258476]}},{"type":"Feature","properties":{"BridgeNumber":"B769","BridgeName":"Mubuku","LinkID":"A005_Link13","RoadNumber":"A005","RoadClass":"A","RoadDescrPrincipal":"Mubuku - Kasese","Region":"Southern","Station":"Kasese","OverallCondition":"Fair","OverallConditionRating":5,"AADT2026":5246.59},"geometry":{"type":"Point","coordinates":[30.117351,0.252003]}},{"type":"Feature","properties":{"BridgeNumber":"B019","BridgeName":"Lopei Irish Crossing","LinkID":"B301_Link01","RoadNumber":"B301","RoadClass":"B","RoadDescrPrincipal":"Ariamoi - Kaladonapal - Kaperimoru","Region":"North Eastern","Station":"Kotido","OverallCondition":"Fair","OverallConditionRating":5,"AADT2026":1147.52},"geometry":{"type":"Point","coordinates":[34.333296,2.579508]}},{"type":"Feature","properties":{"BridgeNumber":"B544","BridgeName":"Nyamwamba Bridge","LinkID":"A005_Link13","RoadNumber":"A005","RoadClass":"A","RoadDescrPrincipal":"Mubuku - Kasese","Region":"Southern","Station":"Kasese","OverallCondition":"Good","OverallConditionRating":7,"AADT2026":5246.59},"geometry":{"type":"Point","coordinates":[30.100704,0.191362]}},{"type":"Feature","properties":{"BridgeNumber":"B020","BridgeName":"Lopei Irish Crossing","LinkID":"B301_Link01","RoadNumber":"B301","RoadClass":"B","RoadDescrPrincipal":"Ariamoi - Kaladonapal - Kaperimoru","Region":"North Eastern","Station":"Kotido","OverallCondition":"Good","OverallConditionRating":7,"AADT2026":1147.52},"geometry":{"type":"Point","coordinates":[34.34093,2.572513]}},{"type":"Feature","properties":{"BridgeNumber":"B387","BridgeName":"Kaseiga","LinkID":"B152_Link04","RoadNumber":"B152","RoadClass":"B","RoadDescrPrincipal":"Rugazi - Katunguru  - Kikorongo","Region":"Southern","Station":"Kasese","OverallCondition":"Good","OverallConditionRating":7,"AADT2026":5684.07},"geometry":{"type":"Point","coordinates":[30.07876,-0.175658]}},{"type":"Feature","properties":{"BridgeNumber":"B021","BridgeName":"Iriri Mpcs","LinkID":"B303_Link03","RoadNumber":"B303","RoadClass":"B","RoadDescrPrincipal":"Iriri - Akisim (Lorengechora) - Ariamoi - Nadunget","Region":"North Eastern","Station":"Moroto","OverallCondition":"Good","OverallConditionRating":7,"AADT2026":2002.57},"geometry":{"type":"Point","coordinates":[34.222484,2.097629]}},{"type":"Feature","properties":{"BridgeNumber":"B022","BridgeName":"Mpondwe Bridge","LinkID":"A005_Link15","RoadNumber":"A005","RoadClass":"A","RoadDescrPrincipal":"Kikorongo - Bwera - Mpondwe","Region":"Southern","Station":"Kasese","OverallCondition":"Good","OverallConditionRating":7,"AADT2026":5246.59},"geometry":{"type":"Point","coordinates":[29.72021,0.04122]}},{"type":"Feature","properties":{"BridgeNumber":"B388","BridgeName":"Bunamubi Bridge","LinkID":"C867_Link02","RoadNumber":"C867","RoadClass":"C","RoadDescrPrincipal":"Bubulo-Bududa Circle road","Region":"Eastern","Station":"Mbale","OverallCondition":"Good","OverallConditionRating":7,"AADT2026":1588.56},"geometry":{"type":"Point","coordinates":[34.339568,1.002206]}},{"type":"Feature","properties":{"BridgeNumber":"B023","BridgeName":"Kafu Bridge","LinkID":"A006_Link06","RoadNumber":"A006","RoadClass":"A","RoadDescrPrincipal":"Nakasongola - Kafu","Region":"Central","Station":"Luwero","OverallCondition":"Good","OverallConditionRating":7,"AADT2026":3799.64},"geometry":{"type":"Point","coordinates":[32.412008,1.335146]}},{"type":"Feature","properties":{"BridgeNumber":"B389","BridgeName":"Dopeth Irish Crossing","LinkID":"C575_Link01","RoadNumber":"C575","RoadClass":"C","RoadDescrPrincipal":"Kibuku - Nyabushozi","Region":"Western","Station":"Fort Portal","OverallCondition":"Good","OverallConditionRating":7,"AADT2026":4005.53},"geometry":{"type":"Point","coordinates":[30.30627,1.005546]}},{"type":"Feature","properties":{"BridgeNumber":"B024","BridgeName":"Titi","LinkID":"A006_Link08","RoadNumber":"A006","RoadClass":"A","RoadDescrPrincipal":"Kigumba - Karuma","Region":"Western","Station":"Masindi","OverallCondition":"Good","OverallConditionRating":7,"AADT2026":5217.12},"geometry":{"type":"Point","coordinates":[32.020889,1.826092]}},{"type":"Feature","properties":{"BridgeNumber":"B890","BridgeName":"Agago Irish Crossing","LinkID":"B302_Link02","RoadNumber":"B302","RoadClass":"B","RoadDescrPrincipal":"Abim - Kilak","Region":"Northern","Station":"Kitgum","OverallCondition":"Good","OverallConditionRating":7,"AADT2026":861.37},"geometry":{"type":"Point","coordinates":[33.547611,2.722019]}},{"type":"Feature","properties":{"BridgeNumber":"B025","BridgeName":"Karuma Bridge","LinkID":"A006_Link09","RoadNumber":"A006","RoadClass":"A","RoadDescrPrincipal":"Karuma - Kamdini","Region":"Northern","Station":"Gulu","OverallCondition":"Satisfactory","OverallConditionRating":6,"AADT2026":3753.67},"geometry":{"type":"Point","coordinates":[32.239732,2.242655]}},{"type":"Feature","properties":{"BridgeNumber":"B557","BridgeName":"Kitekena","LinkID":"C510_Link01","RoadNumber":"C510","RoadClass":"C","RoadDescrPrincipal":"Mubuku-Maliba-Nyakalingijo","Region":"Southern","Station":"Kasese","OverallCondition":"Satisfactory","OverallConditionRating":6,"AADT2026":1287.6},"geometry":{"type":"Point","coordinates":[30.101702,0.321817]}},{"type":"Feature","properties":{"BridgeNumber":"B026","BridgeName":"Magodes","LinkID":"A007_Link02","RoadNumber":"A007","RoadClass":"A","RoadDescrPrincipal":"Tororo - Magodes - Nabumali","Region":"Eastern","Station":"Tororo","OverallCondition":"Good","OverallConditionRating":7,"AADT2026":23460.74},"geometry":{"type":"Point","coordinates":[34.170111,0.827451]}},{"type":"Feature","properties":{"BridgeNumber":"B770","BridgeName":"Manafwa","LinkID":"A007_Link02","RoadNumber":"A007","RoadClass":"A","RoadDescrPrincipal":"Tororo - Magodes - Nabumali","Region":"Eastern","Station":"Tororo","OverallCondition":"Good","OverallConditionRating":7,"AADT2026":23460.74},"geometry":{"type":"Point","coordinates":[34.158517,0.939491]}},{"type":"Feature","properties":{"BridgeNumber":"B028","BridgeName":"Namatala","LinkID":"A007_Link04","RoadNumber":"A007","RoadClass":"A","RoadDescrPrincipal":"Mbale - Namunsi - Kumi","Region":"Eastern","Station":"Mbale","OverallCondition":"Good","OverallConditionRating":7,"AADT2026":10667.71},"geometry":{"type":"Point","coordinates":[34.172568,1.108766]}},{"type":"Feature","properties":{"BridgeNumber":"B875","BridgeName":"Kabobo - Mpcs","LinkID":"C419_Link01","RoadNumber":"C419","RoadClass":"C","RoadDescrPrincipal":"Kafunzo-Kikagati","Region":"Southern","Station":"Mbarara","OverallCondition":"Good","OverallConditionRating":7,"AADT2026":5978.82},"geometry":{"type":"Point","coordinates":[30.567479,-0.996403]}},{"type":"Feature","properties":{"BridgeNumber":"B029","BridgeName":"Fika-Salaama","LinkID":"A007_Link04","RoadNumber":"A007","RoadClass":"A","RoadDescrPrincipal":"Mbale - Namunsi - Kumi","Region":"Eastern","Station":"Mbale","OverallCondition":"Good","OverallConditionRating":7,"AADT2026":10667.71},"geometry":{"type":"Point","coordinates":[34.176178,1.072826]}},{"type":"Feature","properties":{"BridgeNumber":"B879","BridgeName":"Nyabisheke - Mpcs","LinkID":"C357_Link01","RoadNumber":"C357","RoadClass":"C","RoadDescrPrincipal":"Muzizi-Buremba","Region":"Southern","Station":"Ibanda","OverallCondition":"Good","OverallConditionRating":7,"AADT2026":2213.75},"geometry":{"type":"Point","coordinates":[30.886008,0.126361]}},{"type":"Feature","properties":{"BridgeNumber":"B030","BridgeName":"Awoja","LinkID":"A007_Link05","RoadNumber":"A007","RoadClass":"A","RoadDescrPrincipal":"Kumi - Soroti","Region":"North Eastern","Station":"Soroti","OverallCondition":"Good","OverallConditionRating":7,"AADT2026":8890.71},"geometry":{"type":"Point","coordinates":[33.737146,1.667837]}},{"type":"Feature","properties":{"BridgeNumber":"B399","BridgeName":"Ekyambu - MPCC","LinkID":"C356_Link01","RoadNumber":"C356","RoadClass":"C","RoadDescrPrincipal":"Ibanda-Kanoni-Kazo","Region":"Southern","Station":"Ibanda","OverallCondition":"Good","OverallConditionRating":7,"AADT2026":2213.75},"geometry":{"type":"Point","coordinates":[30.607077,-0.108781]}},{"type":"Feature","properties":{"BridgeNumber":"B031","BridgeName":"Tochi Bridge","LinkID":"A007_Link10","RoadNumber":"A007","RoadClass":"A","RoadDescrPrincipal":"Ayer - Kamdini","Region":"Northern","Station":"Lira","OverallCondition":"Marginal","OverallConditionRating":4,"AADT2026":3127.56},"geometry":{"type":"Point","coordinates":[32.342558,2.227382]}},{"type":"Feature","properties":{"BridgeNumber":"B401","BridgeName":"Nakironget Irish Crossing","LinkID":"C960_Link01","RoadNumber":"C960","RoadClass":"C","RoadDescrPrincipal":"Angatun-Nabilatuk-Lokapel","Region":"North Eastern","Station":"Moroto","OverallCondition":"Satisfactory","OverallConditionRating":6,"AADT2026":1323.61},"geometry":{"type":"Point","coordinates":[34.559105,1.953339]}},{"type":"Feature","properties":{"BridgeNumber":"B032","BridgeName":"Albert Nile Bridge","LinkID":"A008_Link03","RoadNumber":"A008","RoadClass":"A","RoadDescrPrincipal":"Packwach - Nebbi","Region":"Northern","Station":"Arua","OverallCondition":"Good","OverallConditionRating":7,"AADT2026":2895.11},"geometry":{"type":"Point","coordinates":[31.507183,2.459826]}},{"type":"Feature","properties":{"BridgeNumber":"B402","BridgeName":"Lolachat Irish Crossing/Splash","LinkID":"C960_Link01","RoadNumber":"C960","RoadClass":"C","RoadDescrPrincipal":"Angatun-Nabilatuk-Lokapel","Region":"North Eastern","Station":"Moroto","OverallCondition":"Good","OverallConditionRating":7,"AADT2026":1323.61},"geometry":{"type":"Point","coordinates":[34.56141,1.92599]}},{"type":"Feature","properties":{"BridgeNumber":"B033","BridgeName":"Achwera Bridge","LinkID":"A008_Link03","RoadNumber":"A008","RoadClass":"A","RoadDescrPrincipal":"Packwach - Nebbi","Region":"Northern","Station":"Arua","OverallCondition":"Good","OverallConditionRating":7,"AADT2026":2895.11},"geometry":{"type":"Point","coordinates":[31.188496,2.469222]}},{"type":"Feature","properties":{"BridgeNumber":"B888","BridgeName":"Nabilatuk Irish Crossing","LinkID":"C960_Link01","RoadNumber":"C960","RoadClass":"C","RoadDescrPrincipal":"Angatun-Nabilatuk-Lokapel","Region":"North Eastern","Station":"Moroto","OverallCondition":"Good","OverallConditionRating":7,"AADT2026":1323.61},"geometry":{"type":"Point","coordinates":[34.583719,1.861837]}},{"type":"Feature","properties":{"BridgeNumber":"B034","BridgeName":"Akaba Bridge","LinkID":"A008_Link03","RoadNumber":"A008","RoadClass":"A","RoadDescrPrincipal":"Packwach - Nebbi","Region":"Northern","Station":"Arua","OverallCondition":"Satisfactory","OverallConditionRating":6,"AADT2026":2895.11},"geometry":{"type":"Point","coordinates":[31.168052,2.484182]}},{"type":"Feature","properties":{"BridgeNumber":"B035","BridgeName":"Nyarwodho Bridge","LinkID":"A008_Link03","RoadNumber":"A008","RoadClass":"A","RoadDescrPrincipal":"Packwach - Nebbi","Region":"Northern","Station":"Arua","OverallCondition":"Good","OverallConditionRating":7,"AADT2026":2895.11},"geometry":{"type":"Point","coordinates":[31.149975,2.488967]}},{"type":"Feature","properties":{"BridgeNumber":"B036","BridgeName":"Namthin Bridge","LinkID":"A008_Link04","RoadNumber":"A008","RoadClass":"A","RoadDescrPrincipal":"Nebbi - Eruba","Region":"Northern","Station":"Arua","OverallCondition":"Good","OverallConditionRating":7,"AADT2026":1723.32},"geometry":{"type":"Point","coordinates":[31.089761,2.515232]}},{"type":"Feature","properties":{"BridgeNumber":"B037","BridgeName":"Ora Bridge","LinkID":"A008_Link04","RoadNumber":"A008","RoadClass":"A","RoadDescrPrincipal":"Nebbi - Eruba","Region":"Northern","Station":"Arua","OverallCondition":"Satisfactory","OverallConditionRating":6,"AADT2026":1723.32},"geometry":{"type":"Point","coordinates":[31.14069,2.6556]}},{"type":"Feature","properties":{"BridgeNumber":"B038","BridgeName":"Aguyi Bridge","LinkID":"A008_Link04","RoadNumber":"A008","RoadClass":"A","RoadDescrPrincipal":"Nebbi - Eruba","Region":"Northern","Station":"Arua","OverallCondition":"Good","OverallConditionRating":7,"AADT2026":1723.32},"geometry":{"type":"Point","coordinates":[30.99522,2.824566]}},{"type":"Feature","properties":{"BridgeNumber":"B039","BridgeName":"Ozuva Bridge","LinkID":"A008_Link04","RoadNumber":"A008","RoadClass":"A","RoadDescrPrincipal":"Nebbi - Eruba","Region":"Northern","Station":"Arua","OverallCondition":"Good","OverallConditionRating":7,"AADT2026":1723.32},"geometry":{"type":"Point","coordinates":[30.984172,2.859082]}},{"type":"Feature","properties":{"BridgeNumber":"B040","BridgeName":"Wiki Bridge","LinkID":"A008_Link04","RoadNumber":"A008","RoadClass":"A","RoadDescrPrincipal":"Nebbi - Eruba","Region":"Northern","Station":"Arua","OverallCondition":"Good","OverallConditionRating":7,"AADT2026":1723.32},"geometry":{"type":"Point","coordinates":[30.981932,2.875703]}},{"type":"Feature","properties":{"BridgeNumber":"B041","BridgeName":"Kayirila Bridge","LinkID":"A009_Link03","RoadNumber":"A009","RoadClass":"A","RoadDescrPrincipal":"Busunju - Kiboga - Lwamata","Region":"Central","Station":"Kampala","OverallCondition":"Fair","OverallConditionRating":5,"AADT2026":10893.97},"geometry":{"type":"Point","coordinates":[31.917754,0.811415]}},{"type":"Feature","properties":{"BridgeNumber":"B042","BridgeName":"Mpologoma","LinkID":"A012_Link01","RoadNumber":"A012","RoadClass":"A","RoadDescrPrincipal":"Nakalama - Namutumba - Mpologoma bridge","Region":"Eastern","Station":"Jinja","OverallCondition":"Good","OverallConditionRating":7,"AADT2026":27494.19},"geometry":{"type":"Point","coordinates":[33.73775,0.966936]}},{"type":"Feature","properties":{"BridgeNumber":"B043","BridgeName":"Rushango-Bridge","LinkID":"C356_Link01","RoadNumber":"C356","RoadClass":"C","RoadDescrPrincipal":"Ibanda-Kanoni-Kazo","Region":"Southern","Station":"Ibanda","OverallCondition":"Good","OverallConditionRating":7,"AADT2026":2213.75},"geometry":{"type":"Point","coordinates":[30.704986,-0.085684]}},{"type":"Feature","properties":{"BridgeNumber":"B044","BridgeName":"Mpanga - Bridge","LinkID":"B150_Link03","RoadNumber":"B150","RoadClass":"B","RoadDescrPrincipal":"Ibanda - Muziza - Kamwenge","Region":"Southern","Station":"Ibanda","OverallCondition":"Beyond Repair","OverallConditionRating":0,"AADT2026":3474.98},"geometry":{"type":"Point","coordinates":[30.461584,0.100458]}},{"type":"Feature","properties":{"BridgeNumber":"B047","BridgeName":"Katunguru Bridge","LinkID":"B152_Link03","RoadNumber":"B152","RoadClass":"B","RoadDescrPrincipal":"Ishaka - Buhinda - Rugazi","Region":"Southern","Station":"Mbarara","OverallCondition":"Fair","OverallConditionRating":5,"AADT2026":5684.07},"geometry":{"type":"Point","coordinates":[30.091465,-0.258862]}},{"type":"Feature","properties":{"BridgeNumber":"B048","BridgeName":"Muzizi","LinkID":"B202_Link01","RoadNumber":"B202","RoadClass":"B","RoadDescrPrincipal":"Kyenjojo - Katoke - R. Muzizi","Region":"Western","Station":"Fort Portal","OverallCondition":"Good","OverallConditionRating":7,"AADT2026":1258.13},"geometry":{"type":"Point","coordinates":[30.72323,0.746319]}},{"type":"Feature","properties":{"BridgeNumber":"B049","BridgeName":"Nkusi","LinkID":"B202_Link03","RoadNumber":"B202","RoadClass":"B","RoadDescrPrincipal":"Kagadi - Mabale - Kabwoya","Region":"Western","Station":"Hoima","OverallCondition":"Good","OverallConditionRating":7,"AADT2026":1069.38},"geometry":{"type":"Point","coordinates":[30.994662,1.129791]}},{"type":"Feature","properties":{"BridgeNumber":"B050","BridgeName":"Rwere","LinkID":"B300_Link01","RoadNumber":"B300","RoadClass":"B","RoadDescrPrincipal":"Namunsi - Sironko","Region":"Eastern","Station":"Mbale","OverallCondition":"Good","OverallConditionRating":7,"AADT2026":5887.29},"geometry":{"type":"Point","coordinates":[34.270291,1.244165]}},{"type":"Feature","properties":{"BridgeNumber":"B051","BridgeName":"Sironko","LinkID":"B300_Link01","RoadNumber":"B300","RoadClass":"B","RoadDescrPrincipal":"Namunsi - Sironko","Region":"Eastern","Station":"Mbale","OverallCondition":"Good","OverallConditionRating":7,"AADT2026":5887.29},"geometry":{"type":"Point","coordinates":[34.223952,1.211618]}},{"type":"Feature","properties":{"BridgeNumber":"B052","BridgeName":"Nalugugu","LinkID":"B300_Link01","RoadNumber":"B300","RoadClass":"B","RoadDescrPrincipal":"Namunsi - Sironko","Region":"Eastern","Station":"Mbale","OverallCondition":"Good","OverallConditionRating":7,"AADT2026":5887.29},"geometry":{"type":"Point","coordinates":[34.272306,1.245872]}},{"type":"Feature","properties":{"BridgeNumber":"B053","BridgeName":"Simu","LinkID":"B300_Link02","RoadNumber":"B300","RoadClass":"B","RoadDescrPrincipal":"Sironko - Muyembe","Region":"Eastern","Station":"Mbale","OverallCondition":"Fair","OverallConditionRating":5,"AADT2026":4182.9},"geometry":{"type":"Point","coordinates":[34.271813,1.247564]}},{"type":"Feature","properties":{"BridgeNumber":"B054","BridgeName":"Yembe","LinkID":"B300_Link03","RoadNumber":"B300","RoadClass":"B","RoadDescrPrincipal":"Muyembe - Namalu","Region":"Eastern","Station":"Mbale","OverallCondition":"Good","OverallConditionRating":7,"AADT2026":1443.05},"geometry":{"type":"Point","coordinates":[34.533875,1.574854]}},{"type":"Feature","properties":{"BridgeNumber":"B055","BridgeName":"Atari","LinkID":"B304_Link02","RoadNumber":"B304","RoadClass":"B","RoadDescrPrincipal":"Kapchorwa-Suam","Region":"Eastern","Station":"Mbale","OverallCondition":"Good","OverallConditionRating":7,"AADT2026":1695.6},"geometry":{"type":"Point","coordinates":[34.743303,1.264884]}},{"type":"Feature","properties":{"BridgeNumber":"B056","BridgeName":"Ngenge","LinkID":"B304_Link02","RoadNumber":"B304","RoadClass":"B","RoadDescrPrincipal":"Kapchorwa-Suam","Region":"Eastern","Station":"Mbale","OverallCondition":"Good","OverallConditionRating":7,"AADT2026":1695.6},"geometry":{"type":"Point","coordinates":[34.507876,1.406869]}},{"type":"Feature","properties":{"BridgeNumber":"B057","BridgeName":"Emjong","LinkID":"B304_Link02","RoadNumber":"B304","RoadClass":"B","RoadDescrPrincipal":"Kapchorwa-Suam","Region":"Eastern","Station":"Mbale","OverallCondition":"Good","OverallConditionRating":7,"AADT2026":1695.6},"geometry":{"type":"Point","coordinates":[34.515359,1.415037]}},{"type":"Feature","properties":{"BridgeNumber":"B058","BridgeName":"Kanyago 2","LinkID":"B305_Link03","RoadNumber":"B305","RoadClass":"B","RoadDescrPrincipal":"Kanyago Bridge - Kumi","Region":"North Eastern","Station":"Soroti","OverallCondition":"Beyond Repair","OverallConditionRating":0,"AADT2026":3609.7},"geometry":{"type":"Point","coordinates":[33.921269,1.414977]}},{"type":"Feature","properties":{"BridgeNumber":"B060","BridgeName":"Kanyago","LinkID":"B305_Link03","RoadNumber":"B305","RoadClass":"B","RoadDescrPrincipal":"Kanyago Bridge - Kumi","Region":"North Eastern","Station":"Soroti","OverallCondition":"Marginal","OverallConditionRating":4,"AADT2026":3609.7},"geometry":{"type":"Point","coordinates":[33.87268,1.26554]}},{"type":"Feature","properties":{"BridgeNumber":"B061","BridgeName":"Buyanja","LinkID":"C214_Link01","RoadNumber":"C214","RoadClass":"C","RoadDescrPrincipal":"Lyantonde - Lumbugu","Region":"Central","Station":"Masaka","OverallCondition":"Marginal","OverallConditionRating":4,"AADT2026":673.76},"geometry":{"type":"Point","coordinates":[31.198463,-0.469037]}},{"type":"Feature","properties":{"BridgeNumber":"B062","BridgeName":"Kibale Bridge","LinkID":"C351_Link01","RoadNumber":"C351","RoadClass":"C","RoadDescrPrincipal":"Isingiro-Kityanza","Region":"Southern","Station":"Mbarara","OverallCondition":"Fair","OverallConditionRating":5,"AADT2026":2021.64},"geometry":{"type":"Point","coordinates":[30.98671,-0.81035]}},{"type":"Feature","properties":{"BridgeNumber":"B067","BridgeName":"Kahenge Bridge","LinkID":"C410_Link01","RoadNumber":"C410","RoadClass":"C","RoadDescrPrincipal":"Kagamba-Kebisoni","Region":"Southern","Station":"Kabale","OverallCondition":"Good","OverallConditionRating":7,"AADT2026":2531.77},"geometry":{"type":"Point","coordinates":[30.051498,-0.833268]}},{"type":"Feature","properties":{"BridgeNumber":"B068","BridgeName":"Minera 01","LinkID":"C411_Link01","RoadNumber":"C411","RoadClass":"C","RoadDescrPrincipal":"Muhanga-Kisiizi-Kebisoni","Region":"Southern","Station":"Kabale","OverallCondition":"Fair","OverallConditionRating":5,"AADT2026":716.71},"geometry":{"type":"Point","coordinates":[30.012172,-0.904888]}},{"type":"Feature","properties":{"BridgeNumber":"B069","BridgeName":"Minera 02","LinkID":"C411_Link01","RoadNumber":"C411","RoadClass":"C","RoadDescrPrincipal":"Muhanga-Kisiizi-Kebisoni","Region":"Southern","Station":"Kabale","OverallCondition":"Satisfactory","OverallConditionRating":6,"AADT2026":716.71},"geometry":{"type":"Point","coordinates":[30.012168,-0.904628]}},{"type":"Feature","properties":{"BridgeNumber":"B070","BridgeName":"Nyamwiru Bridge","LinkID":"C414_Link01","RoadNumber":"C414","RoadClass":"C","RoadDescrPrincipal":"Katunguru - Ishasha","Region":"Southern","Station":"Kasese","OverallCondition":"Good","OverallConditionRating":7,"AADT2026":246.66},"geometry":{"type":"Point","coordinates":[29.711591,-0.601255]}},{"type":"Feature","properties":{"BridgeNumber":"B071","BridgeName":"Rwempunu Bridge","LinkID":"C414_Link01","RoadNumber":"C414","RoadClass":"C","RoadDescrPrincipal":"Katunguru - Ishasha","Region":"Southern","Station":"Kasese","OverallCondition":"Good","OverallConditionRating":7,"AADT2026":246.66},"geometry":{"type":"Point","coordinates":[29.803849,-0.455712]}},{"type":"Feature","properties":{"BridgeNumber":"B072","BridgeName":"Kaizi Bridge","LinkID":"C414_Link01","RoadNumber":"C414","RoadClass":"C","RoadDescrPrincipal":"Katunguru - Ishasha","Region":"Southern","Station":"Kasese","OverallCondition":"Good","OverallConditionRating":7,"AADT2026":246.66},"geometry":{"type":"Point","coordinates":[29.8417,-0.441127]}},{"type":"Feature","properties":{"BridgeNumber":"B073","BridgeName":"Nchwera Bridge","LinkID":"C414_Link01","RoadNumber":"C414","RoadClass":"C","RoadDescrPrincipal":"Katunguru - Ishasha","Region":"Southern","Station":"Kasese","OverallCondition":"Fair","OverallConditionRating":5,"AADT2026":246.66},"geometry":{"type":"Point","coordinates":[29.874855,-0.379872]}},{"type":"Feature","properties":{"BridgeNumber":"B074","BridgeName":"Ntungwe Bridge","LinkID":"C414_Link01","RoadNumber":"C414","RoadClass":"C","RoadDescrPrincipal":"Katunguru - Ishasha","Region":"Southern","Station":"Kasese","OverallCondition":"Satisfactory","OverallConditionRating":6,"AADT2026":246.66},"geometry":{"type":"Point","coordinates":[29.929971,-0.265923]}},{"type":"Feature","properties":{"BridgeNumber":"B075","BridgeName":"Ishasha Bridge","LinkID":"C414_Link01","RoadNumber":"C414","RoadClass":"C","RoadDescrPrincipal":"Katunguru - Ishasha","Region":"Southern","Station":"Kasese","OverallCondition":"Poor","OverallConditionRating":3,"AADT2026":246.66},"geometry":{"type":"Point","coordinates":[30.060412,-0.151381]}},{"type":"Feature","properties":{"BridgeNumber":"B076","BridgeName":"Nyamukambu Bridge","LinkID":"C415_Link02","RoadNumber":"C415","RoadClass":"C","RoadDescrPrincipal":"Bihanga - Bwizibwera","Region":"Southern","Station":"Ibanda","OverallCondition":"Very Poor","OverallConditionRating":2,"AADT2026":1597.87},"geometry":{"type":"Point","coordinates":[30.467704,-0.429878]}},{"type":"Feature","properties":{"BridgeNumber":"B077","BridgeName":"Kamiira Bridge","LinkID":"C416_Link01","RoadNumber":"C416","RoadClass":"C","RoadDescrPrincipal":"Bihanga - Nsiika","Region":"Southern","Station":"Ibanda","OverallCondition":"Fair","OverallConditionRating":5,"AADT2026":1048.7},"geometry":{"type":"Point","coordinates":[30.434509,-0.364177]}},{"type":"Feature","properties":{"BridgeNumber":"B078","BridgeName":"Mirama 01","LinkID":"C417_Link03","RoadNumber":"C417","RoadClass":"C","RoadDescrPrincipal":"Kafunzo-Kakitumba","Region":"Southern","Station":"Kabale","OverallCondition":"Good","OverallConditionRating":7,"AADT2026":2744.3},"geometry":{"type":"Point","coordinates":[30.427222,-1.015659]}},{"type":"Feature","properties":{"BridgeNumber":"B079","BridgeName":"Katengure Bridge","LinkID":"C418_Link01","RoadNumber":"C418","RoadClass":"C","RoadDescrPrincipal":"Kakukuru - Rubale","Region":"Southern","Station":"Kabale","OverallCondition":"Marginal","OverallConditionRating":4,"AADT2026":8031.23},"geometry":{"type":"Point","coordinates":[30.218774,-0.990543]}},{"type":"Feature","properties":{"BridgeNumber":"B080","BridgeName":"Mubuku Bridge","LinkID":"C510_Link01","RoadNumber":"C510","RoadClass":"C","RoadDescrPrincipal":"Mubuku-Maliba-Nyakalingijo","Region":"Southern","Station":"Kasese","OverallCondition":"Critical","OverallConditionRating":1,"AADT2026":1287.6},"geometry":{"type":"Point","coordinates":[30.097971,0.322111]}},{"type":"Feature","properties":{"BridgeNumber":"B081","BridgeName":"Kilembe Bridge","LinkID":"C511_Link01","RoadNumber":"C511","RoadClass":"C","RoadDescrPrincipal":"Kasese - Kilembe mines","Region":"Southern","Station":"Kasese","OverallCondition":"Good","OverallConditionRating":7,"AADT2026":1287.6},"geometry":{"type":"Point","coordinates":[30.012483,0.197222]}},{"type":"Feature","properties":{"BridgeNumber":"B082","BridgeName":"Kanyampala Bridge","LinkID":"C513_Link01","RoadNumber":"C513","RoadClass":"C","RoadDescrPrincipal":"Kinyamaseke-Kisinga","Region":"Southern","Station":"Kasese","OverallCondition":"Fair","OverallConditionRating":5,"AADT2026":1287.6},"geometry":{"type":"Point","coordinates":[29.856377,0.044865]}},{"type":"Feature","properties":{"BridgeNumber":"B085","BridgeName":"Nyamugasani Bridge","LinkID":"C516_Link01","RoadNumber":"C516","RoadClass":"C","RoadDescrPrincipal":"Katojo-Katwe-Rwentale","Region":"Southern","Station":"Kasese","OverallCondition":"Fair","OverallConditionRating":5,"AADT2026":1287.6},"geometry":{"type":"Point","coordinates":[29.841637,-0.12191]}},{"type":"Feature","properties":{"BridgeNumber":"B087","BridgeName":"Wassa","LinkID":"C541_Link01","RoadNumber":"C541","RoadClass":"C","RoadDescrPrincipal":"Karugutu - Ntoroko","Region":"Western","Station":"Fort Portal","OverallCondition":"Good","OverallConditionRating":7,"AADT2026":383.18},"geometry":{"type":"Point","coordinates":[30.363654,0.934512]}},{"type":"Feature","properties":{"BridgeNumber":"B088","BridgeName":"Sogoha","LinkID":"C542_Link01","RoadNumber":"C542","RoadClass":"C","RoadDescrPrincipal":"Fortportal - Kijura - Kabende Bridge-Sogahe-Kyarusozi","Region":"Western","Station":"Fort Portal","OverallCondition":"Good","OverallConditionRating":7,"AADT2026":1151.09},"geometry":{"type":"Point","coordinates":[30.494034,0.881631]}},{"type":"Feature","properties":{"BridgeNumber":"B089","BridgeName":"Waiga","LinkID":"C623_Link01","RoadNumber":"C623","RoadClass":"C","RoadDescrPrincipal":"Bukumi-Bulisa","Region":"Western","Station":"Masindi","OverallCondition":"Good","OverallConditionRating":7,"AADT2026":650.01},"geometry":{"type":"Point","coordinates":[31.476058,1.990847]}},{"type":"Feature","properties":{"BridgeNumber":"B090","BridgeName":"Waiga","LinkID":"C625_Link01","RoadNumber":"C625","RoadClass":"C","RoadDescrPrincipal":"Kisanja-Park junction","Region":"Western","Station":"Masindi","OverallCondition":"Good","OverallConditionRating":7,"AADT2026":578.65},"geometry":{"type":"Point","coordinates":[31.703584,1.978491]}},{"type":"Feature","properties":{"BridgeNumber":"B091","BridgeName":"Waringo","LinkID":"C625_Link01","RoadNumber":"C625","RoadClass":"C","RoadDescrPrincipal":"Kisanja-Park junction","Region":"Western","Station":"Masindi","OverallCondition":"Good","OverallConditionRating":7,"AADT2026":578.65},"geometry":{"type":"Point","coordinates":[31.713854,1.942916]}},{"type":"Feature","properties":{"BridgeNumber":"B092","BridgeName":"Zoleya","LinkID":"C625_Link01","RoadNumber":"C625","RoadClass":"C","RoadDescrPrincipal":"Kisanja-Park junction","Region":"Western","Station":"Masindi","OverallCondition":"Good","OverallConditionRating":7,"AADT2026":578.65},"geometry":{"type":"Point","coordinates":[31.711604,1.890965]}},{"type":"Feature","properties":{"BridgeNumber":"B093","BridgeName":"Sambiya","LinkID":"C625_Link01","RoadNumber":"C625","RoadClass":"C","RoadDescrPrincipal":"Kisanja-Park junction","Region":"Western","Station":"Masindi","OverallCondition":"Good","OverallConditionRating":7,"AADT2026":578.65},"geometry":{"type":"Point","coordinates":[31.709702,1.860353]}},{"type":"Feature","properties":{"BridgeNumber":"B094","BridgeName":"Aturukuru","LinkID":"C832_Link01","RoadNumber":"C832","RoadClass":"C","RoadDescrPrincipal":"Tororo-Nagongera","Region":"Eastern","Station":"Tororo","OverallCondition":"Satisfactory","OverallConditionRating":6,"AADT2026":4196.34},"geometry":{"type":"Point","coordinates":[34.162274,0.701974]}},{"type":"Feature","properties":{"BridgeNumber":"B095","BridgeName":"Pakamu","LinkID":"C832_Link01","RoadNumber":"C832","RoadClass":"C","RoadDescrPrincipal":"Tororo-Nagongera","Region":"Eastern","Station":"Tororo","OverallCondition":"Satisfactory","OverallConditionRating":6,"AADT2026":4196.34},"geometry":{"type":"Point","coordinates":[33.928153,0.847531]}},{"type":"Feature","properties":{"BridgeNumber":"B096","BridgeName":"Mahanga","LinkID":"C832_Link01","RoadNumber":"C832","RoadClass":"C","RoadDescrPrincipal":"Tororo-Nagongera","Region":"Eastern","Station":"Tororo","OverallCondition":"Fair","OverallConditionRating":5,"AADT2026":4196.34},"geometry":{"type":"Point","coordinates":[33.928153,0.847531]}},{"type":"Feature","properties":{"BridgeNumber":"B097","BridgeName":"Nakulumutu","LinkID":"C833_Link01","RoadNumber":"C833","RoadClass":"C","RoadDescrPrincipal":"Nabumali junction-Busolwe","Region":"Eastern","Station":"Tororo","OverallCondition":"Fair","OverallConditionRating":5,"AADT2026":4210.82},"geometry":{"type":"Point","coordinates":[33.92727,0.850405]}},{"type":"Feature","properties":{"BridgeNumber":"B098","BridgeName":"Nkola","LinkID":"C833_Link01","RoadNumber":"C833","RoadClass":"C","RoadDescrPrincipal":"Nabumali junction-Busolwe","Region":"Eastern","Station":"Tororo","OverallCondition":"Fair","OverallConditionRating":5,"AADT2026":4210.82},"geometry":{"type":"Point","coordinates":[33.92727,0.850405]}},{"type":"Feature","properties":{"BridgeNumber":"B099","BridgeName":"Nakwazi","LinkID":"C833_Link01","RoadNumber":"C833","RoadClass":"C","RoadDescrPrincipal":"Nabumali junction-Busolwe","Region":"Eastern","Station":"Tororo","OverallCondition":"Marginal","OverallConditionRating":4,"AADT2026":4210.82},"geometry":{"type":"Point","coordinates":[33.92727,0.850405]}},{"type":"Feature","properties":{"BridgeNumber":"B100","BridgeName":"Budumbba","LinkID":"C833_Link02","RoadNumber":"C833","RoadClass":"C","RoadDescrPrincipal":"Busolwe-Budumba","Region":"Eastern","Station":"Tororo","OverallCondition":"Satisfactory","OverallConditionRating":6,"AADT2026":5179.88},"geometry":{"type":"Point","coordinates":[33.915277,0.844362]}},{"type":"Feature","properties":{"BridgeNumber":"B101","BridgeName":"Miwu","LinkID":"C861_Link01","RoadNumber":"C861","RoadClass":"C","RoadDescrPrincipal":"Nalugugu-Mutufu-Budadiri","Region":"Eastern","Station":"Mbale","OverallCondition":"Fair","OverallConditionRating":5,"AADT2026":1929.85},"geometry":{"type":"Point","coordinates":[34.369628,1.151285]}},{"type":"Feature","properties":{"BridgeNumber":"B102","BridgeName":"Sironko","LinkID":"C861_Link01","RoadNumber":"C861","RoadClass":"C","RoadDescrPrincipal":"Nalugugu-Mutufu-Budadiri","Region":"Eastern","Station":"Mbale","OverallCondition":"Satisfactory","OverallConditionRating":6,"AADT2026":1929.85},"geometry":{"type":"Point","coordinates":[34.368106,1.152151]}},{"type":"Feature","properties":{"BridgeNumber":"B103","BridgeName":"Kado","LinkID":"C862_Link01","RoadNumber":"C862","RoadClass":"C","RoadDescrPrincipal":"Namagumba - Budadiri","Region":"Eastern","Station":"Mbale","OverallCondition":"Good","OverallConditionRating":7,"AADT2026":1929.85},"geometry":{"type":"Point","coordinates":[34.335592,1.170617]}},{"type":"Feature","properties":{"BridgeNumber":"B104","BridgeName":"Sonoli","LinkID":"C862_Link01","RoadNumber":"C862","RoadClass":"C","RoadDescrPrincipal":"Namagumba - Budadiri","Region":"Eastern","Station":"Mbale","OverallCondition":"Satisfactory","OverallConditionRating":6,"AADT2026":1929.85},"geometry":{"type":"Point","coordinates":[34.335592,1.170617]}},{"type":"Feature","properties":{"BridgeNumber":"B105","BridgeName":"Namatsu","LinkID":"C863_Link01","RoadNumber":"C863","RoadClass":"C","RoadDescrPrincipal":"Mbale - Nkokonjeru","Region":"Eastern","Station":"Mbale","OverallCondition":"Fair","OverallConditionRating":5,"AADT2026":2272.7},"geometry":{"type":"Point","coordinates":[34.227246,1.038862]}},{"type":"Feature","properties":{"BridgeNumber":"B106","BridgeName":"Kigezi","LinkID":"C863_Link01","RoadNumber":"C863","RoadClass":"C","RoadDescrPrincipal":"Mbale - Nkokonjeru","Region":"Eastern","Station":"Mbale","OverallCondition":"Satisfactory","OverallConditionRating":6,"AADT2026":2272.7},"geometry":{"type":"Point","coordinates":[34.227246,1.038862]}},{"type":"Feature","properties":{"BridgeNumber":"B107","BridgeName":"Namikhoma","LinkID":"C866_Link01","RoadNumber":"C866","RoadClass":"C","RoadDescrPrincipal":"Munamba - Lwakhakha","Region":"Eastern","Station":"Tororo","OverallCondition":"Good","OverallConditionRating":7,"AADT2026":1588.56},"geometry":{"type":"Point","coordinates":[34.378671,0.794757]}},{"type":"Feature","properties":{"BridgeNumber":"B108","BridgeName":"Pasa","LinkID":"C867_Link02","RoadNumber":"C867","RoadClass":"C","RoadDescrPrincipal":"Bubulo-Bududa Circle road","Region":"Eastern","Station":"Mbale","OverallCondition":"Marginal","OverallConditionRating":4,"AADT2026":1588.56},"geometry":{"type":"Point","coordinates":[34.326436,1.032512]}},{"type":"Feature","properties":{"BridgeNumber":"B109","BridgeName":"Tsutsu","LinkID":"C867_Link02","RoadNumber":"C867","RoadClass":"C","RoadDescrPrincipal":"Bubulo-Bududa Circle road","Region":"Eastern","Station":"Mbale","OverallCondition":"Poor","OverallConditionRating":3,"AADT2026":1588.56},"geometry":{"type":"Point","coordinates":[34.326436,1.032512]}},{"type":"Feature","properties":{"BridgeNumber":"B110","BridgeName":"Manafa","LinkID":"C867_Link02","RoadNumber":"C867","RoadClass":"C","RoadDescrPrincipal":"Bubulo-Bududa Circle road","Region":"Eastern","Station":"Mbale","OverallCondition":"Fair","OverallConditionRating":5,"AADT2026":1588.56},"geometry":{"type":"Point","coordinates":[34.366937,1.010453]}},{"type":"Feature","properties":{"BridgeNumber":"B111","BridgeName":"Manafwa","LinkID":"C867_Link02","RoadNumber":"C867","RoadClass":"C","RoadDescrPrincipal":"Bubulo-Bududa Circle road","Region":"Eastern","Station":"Mbale","OverallCondition":"Good","OverallConditionRating":7,"AADT2026":1588.56},"geometry":{"type":"Point","coordinates":[34.361333,1.003988]}},{"type":"Feature","properties":{"BridgeNumber":"B112","BridgeName":"Manafa","LinkID":"C870_Link01","RoadNumber":"C870","RoadClass":"C","RoadDescrPrincipal":"Bubulo-Busumbu","Region":"Eastern","Station":"Mbale","OverallCondition":"Good","OverallConditionRating":7,"AADT2026":1588.56},"geometry":{"type":"Point","coordinates":[34.282917,0.835691]}},{"type":"Feature","properties":{"BridgeNumber":"B113","BridgeName":"Namunyiri","LinkID":"C870_Link02","RoadNumber":"C870","RoadClass":"C","RoadDescrPrincipal":"Busumbu - Munamba","Region":"Eastern","Station":"Tororo","OverallCondition":"Good","OverallConditionRating":7,"AADT2026":1588.56},"geometry":{"type":"Point","coordinates":[34.285518,0.833619]}},{"type":"Feature","properties":{"BridgeNumber":"B114","BridgeName":"Mbigi","LinkID":"C871_Link01","RoadNumber":"C871","RoadClass":"C","RoadDescrPrincipal":"Simu corner - Kaserem","Region":"Eastern","Station":"Mbale","OverallCondition":"Good","OverallConditionRating":7,"AADT2026":854.78},"geometry":{"type":"Point","coordinates":[34.338265,1.319924]}},{"type":"Feature","properties":{"BridgeNumber":"B115","BridgeName":"Kumi","LinkID":"C920_Link01","RoadNumber":"C920","RoadClass":"C","RoadDescrPrincipal":"Kumi-Brooks corner","Region":"North Eastern","Station":"Soroti","OverallCondition":"Good","OverallConditionRating":7,"AADT2026":3855.92},"geometry":{"type":"Point","coordinates":[33.55097,1.500244]}},{"type":"Feature","properties":{"BridgeNumber":"B116","BridgeName":"Abuket","LinkID":"C920_Link01","RoadNumber":"C920","RoadClass":"C","RoadDescrPrincipal":"Kumi-Brooks corner","Region":"North Eastern","Station":"Soroti","OverallCondition":"Good","OverallConditionRating":7,"AADT2026":3855.92},"geometry":{"type":"Point","coordinates":[33.55097,1.500244]}},{"type":"Feature","properties":{"BridgeNumber":"B117","BridgeName":"Tochi Bridge","LinkID":"A006_Link11","RoadNumber":"A006","RoadClass":"A","RoadDescrPrincipal":"Minakulu - Bobi - Gulu","Region":"Northern","Station":"Gulu","OverallCondition":"Fair","OverallConditionRating":5,"AADT2026":3453.82},"geometry":{"type":"Point","coordinates":[32.366309,2.504555]}},{"type":"Feature","properties":{"BridgeNumber":"B118","BridgeName":"Unyama","LinkID":"A006_Link13","RoadNumber":"A006","RoadClass":"A","RoadDescrPrincipal":"Atiak - Nimule(Uganda/Sudan border)","Region":"Northern","Station":"Gulu","OverallCondition":"Beyond Repair","OverallConditionRating":0,"AADT2026":3453.82},"geometry":{"type":"Point","coordinates":[32.072588,3.56966]}},{"type":"Feature","properties":{"BridgeNumber":"B119","BridgeName":"Enyau Bridge","LinkID":"A008_Link06","RoadNumber":"A008","RoadClass":"A","RoadDescrPrincipal":"Manibe - Maracha - Koboko","Region":"Northern","Station":"Arua","OverallCondition":"Satisfactory","OverallConditionRating":6,"AADT2026":5279.92},"geometry":{"type":"Point","coordinates":[30.906898,3.089331]}},{"type":"Feature","properties":{"BridgeNumber":"B120","BridgeName":"Enve Bridge","LinkID":"A008_Link07","RoadNumber":"A008","RoadClass":"A","RoadDescrPrincipal":"Koboko - Oraba(Uganda/Sudan border)","Region":"Northern","Station":"Arua","OverallCondition":"Good","OverallConditionRating":7,"AADT2026":4063.31},"geometry":{"type":"Point","coordinates":[30.910303,3.510532]}},{"type":"Feature","properties":{"BridgeNumber":"B724","BridgeName":"Enve","LinkID":"A008_Link06","RoadNumber":"A008","RoadClass":"A","RoadDescrPrincipal":"Manibe - Maracha - Koboko","Region":"Northern","Station":"Arua","OverallCondition":"Good","OverallConditionRating":7,"AADT2026":5279.92},"geometry":{"type":"Point","coordinates":[30.905202,3.148989]}},{"type":"Feature","properties":{"BridgeNumber":"B121","BridgeName":"Oluffe","LinkID":"A008_Link06","RoadNumber":"A008","RoadClass":"A","RoadDescrPrincipal":"Manibe - Maracha - Koboko","Region":"Northern","Station":"Arua","OverallCondition":"Good","OverallConditionRating":7,"AADT2026":5279.92},"geometry":{"type":"Point","coordinates":[30.933391,3.185571]}},{"type":"Feature","properties":{"BridgeNumber":"B122","BridgeName":"Ayi Bridge","LinkID":"A008_Link06","RoadNumber":"A008","RoadClass":"A","RoadDescrPrincipal":"Manibe - Maracha - Koboko","Region":"Northern","Station":"Arua","OverallCondition":"Good","OverallConditionRating":7,"AADT2026":5279.92},"geometry":{"type":"Point","coordinates":[30.942211,3.249016]}},{"type":"Feature","properties":{"BridgeNumber":"B123","BridgeName":"Yoo","LinkID":"A008_Link06","RoadNumber":"A008","RoadClass":"A","RoadDescrPrincipal":"Manibe - Maracha - Koboko","Region":"Northern","Station":"Arua","OverallCondition":"Good","OverallConditionRating":7,"AADT2026":5279.92},"geometry":{"type":"Point","coordinates":[30.942173,3.320805]}},{"type":"Feature","properties":{"BridgeNumber":"B124","BridgeName":"Oru Bridge","LinkID":"A008_Link06","RoadNumber":"A008","RoadClass":"A","RoadDescrPrincipal":"Manibe - Maracha - Koboko","Region":"Northern","Station":"Arua","OverallCondition":"Good","OverallConditionRating":7,"AADT2026":5279.92},"geometry":{"type":"Point","coordinates":[30.948703,3.326755]}},{"type":"Feature","properties":{"BridgeNumber":"B125","BridgeName":"Apa Bridge","LinkID":"A008_Link06","RoadNumber":"A008","RoadClass":"A","RoadDescrPrincipal":"Manibe - Maracha - Koboko","Region":"Northern","Station":"Arua","OverallCondition":"Good","OverallConditionRating":7,"AADT2026":5279.92},"geometry":{"type":"Point","coordinates":[30.953963,3.33936]}},{"type":"Feature","properties":{"BridgeNumber":"B126","BridgeName":"Kochi Bridge","LinkID":"A008_Link07","RoadNumber":"A008","RoadClass":"A","RoadDescrPrincipal":"Koboko - Oraba(Uganda/Sudan border)","Region":"Northern","Station":"Arua","OverallCondition":"Good","OverallConditionRating":7,"AADT2026":4063.31},"geometry":{"type":"Point","coordinates":[30.94455,3.465599]}},{"type":"Feature","properties":{"BridgeNumber":"B127","BridgeName":"Ayugi Bridge","LinkID":"B250_Link01","RoadNumber":"B250","RoadClass":"B","RoadDescrPrincipal":"Laropi - Moyo","Region":"Northern","Station":"Moyo","OverallCondition":"Good","OverallConditionRating":7,"AADT2026":7586.69},"geometry":{"type":"Point","coordinates":[31.826085,3.588312]}},{"type":"Feature","properties":{"BridgeNumber":"B129","BridgeName":"Eria Bridge","LinkID":"B250_Link01","RoadNumber":"B250","RoadClass":"B","RoadDescrPrincipal":"Laropi - Moyo","Region":"Northern","Station":"Moyo","OverallCondition":"Satisfactory","OverallConditionRating":6,"AADT2026":7586.69},"geometry":{"type":"Point","coordinates":[31.804318,3.63008]}},{"type":"Feature","properties":{"BridgeNumber":"B134","BridgeName":"Yii Bridge","LinkID":"B250_Link02","RoadNumber":"B250","RoadClass":"B","RoadDescrPrincipal":"Moyo - Yumbe","Region":"Northern","Station":"Moyo","OverallCondition":"Poor","OverallConditionRating":3,"AADT2026":1674.92},"geometry":{"type":"Point","coordinates":[31.574334,3.580072]}},{"type":"Feature","properties":{"BridgeNumber":"B725","BridgeName":"Yii","LinkID":"B250_Link02","RoadNumber":"B250","RoadClass":"B","RoadDescrPrincipal":"Moyo - Yumbe","Region":"Northern","Station":"Moyo","OverallCondition":"Good","OverallConditionRating":7,"AADT2026":1674.92},"geometry":{"type":"Point","coordinates":[31.574334,3.580072]}},{"type":"Feature","properties":{"BridgeNumber":"B726","BridgeName":"Nyawa Bridge","LinkID":"B250_Link02","RoadNumber":"B250","RoadClass":"B","RoadDescrPrincipal":"Moyo - Yumbe","Region":"Northern","Station":"Moyo","OverallCondition":"Good","OverallConditionRating":7,"AADT2026":1674.92},"geometry":{"type":"Point","coordinates":[31.53333,3.608758]}},{"type":"Feature","properties":{"BridgeNumber":"B135","BridgeName":"Nyawa","LinkID":"B250_Link02","RoadNumber":"B250","RoadClass":"B","RoadDescrPrincipal":"Moyo - Yumbe","Region":"Northern","Station":"Moyo","OverallCondition":"Good","OverallConditionRating":7,"AADT2026":1674.92},"geometry":{"type":"Point","coordinates":[31.53333,3.608758]}},{"type":"Feature","properties":{"BridgeNumber":"B136","BridgeName":"Kochi","LinkID":"B250_Link02","RoadNumber":"B250","RoadClass":"B","RoadDescrPrincipal":"Moyo - Yumbe","Region":"Northern","Station":"Moyo","OverallCondition":"Good","OverallConditionRating":7,"AADT2026":1674.92},"geometry":{"type":"Point","coordinates":[31.500728,3.575274]}},{"type":"Feature","properties":{"BridgeNumber":"B137","BridgeName":"Jure","LinkID":"B250_Link03","RoadNumber":"B250","RoadClass":"B","RoadDescrPrincipal":"Yumbe - Manibe","Region":"Northern","Station":"Arua","OverallCondition":"Very Poor","OverallConditionRating":2,"AADT2026":1796.22},"geometry":{"type":"Point","coordinates":[31.279984,3.383565]}},{"type":"Feature","properties":{"BridgeNumber":"B138","BridgeName":"Dacha","LinkID":"B250_Link03","RoadNumber":"B250","RoadClass":"B","RoadDescrPrincipal":"Yumbe - Manibe","Region":"Northern","Station":"Arua","OverallCondition":"Good","OverallConditionRating":7,"AADT2026":1796.22},"geometry":{"type":"Point","coordinates":[31.262939,3.365956]}},{"type":"Feature","properties":{"BridgeNumber":"B139","BridgeName":"Ore Bridge","LinkID":"B250_Link03","RoadNumber":"B250","RoadClass":"B","RoadDescrPrincipal":"Yumbe - Manibe","Region":"Northern","Station":"Arua","OverallCondition":"Good","OverallConditionRating":7,"AADT2026":1796.22},"geometry":{"type":"Point","coordinates":[31.20467,3.337573]}},{"type":"Feature","properties":{"BridgeNumber":"B142","BridgeName":"Oru Bridge","LinkID":"B250_Link03","RoadNumber":"B250","RoadClass":"B","RoadDescrPrincipal":"Yumbe - Manibe","Region":"Northern","Station":"Arua","OverallCondition":"Marginal","OverallConditionRating":4,"AADT2026":1796.22},"geometry":{"type":"Point","coordinates":[31.140674,3.267843]}},{"type":"Feature","properties":{"BridgeNumber":"B143","BridgeName":"Enyawu Bridge","LinkID":"B250_Link03","RoadNumber":"B250","RoadClass":"B","RoadDescrPrincipal":"Yumbe - Manibe","Region":"Northern","Station":"Arua","OverallCondition":"Satisfactory","OverallConditionRating":6,"AADT2026":1796.22},"geometry":{"type":"Point","coordinates":[31.122776,3.25326]}},{"type":"Feature","properties":{"BridgeNumber":"B144","BridgeName":"Ayago Bridge","LinkID":"B251_Link01","RoadNumber":"B251","RoadClass":"B","RoadDescrPrincipal":"Gulu - Olwiyo","Region":"Northern","Station":"Gulu","OverallCondition":"Good","OverallConditionRating":7,"AADT2026":11446.6},"geometry":{"type":"Point","coordinates":[32.057063,2.617554]}},{"type":"Feature","properties":{"BridgeNumber":"B145","BridgeName":"Ayago Bridge","LinkID":"A008_Link01","RoadNumber":"A008","RoadClass":"A","RoadDescrPrincipal":"Karuma - Olwiyo","Region":"Northern","Station":"Gulu","OverallCondition":"Good","OverallConditionRating":7,"AADT2026":745.74},"geometry":{"type":"Point","coordinates":[31.965467,2.447473]}},{"type":"Feature","properties":{"BridgeNumber":"B146","BridgeName":"Akaku","LinkID":"B251_Link01","RoadNumber":"B251","RoadClass":"B","RoadDescrPrincipal":"Gulu - Olwiyo","Region":"Northern","Station":"Gulu","OverallCondition":"Fair","OverallConditionRating":5,"AADT2026":11446.6},"geometry":{"type":"Point","coordinates":[31.937167,2.594498]}},{"type":"Feature","properties":{"BridgeNumber":"B147","BridgeName":"Itunga Bridge","LinkID":"B252_Link01","RoadNumber":"B252","RoadClass":"B","RoadDescrPrincipal":"Lira - Puranga Bridge","Region":"Northern","Station":"Lira","OverallCondition":"Fair","OverallConditionRating":5,"AADT2026":3392.27},"geometry":{"type":"Point","coordinates":[32.932532,2.551834]}},{"type":"Feature","properties":{"BridgeNumber":"B148","BridgeName":"Puranga Bridge","LinkID":"B252_Link01","RoadNumber":"B252","RoadClass":"B","RoadDescrPrincipal":"Lira - Puranga Bridge","Region":"Northern","Station":"Lira","OverallCondition":"Good","OverallConditionRating":7,"AADT2026":3392.27},"geometry":{"type":"Point","coordinates":[32.936287,2.605823]}},{"type":"Feature","properties":{"BridgeNumber":"B149","BridgeName":"Atup Bridge","LinkID":"B252_Link02","RoadNumber":"B252","RoadClass":"B","RoadDescrPrincipal":"Puranga Bridge - Corner Kilak - Pejule - Acholibur","Region":"Northern","Station":"Kitgum","OverallCondition":"Satisfactory","OverallConditionRating":6,"AADT2026":5225.34},"geometry":{"type":"Point","coordinates":[32.949551,2.737609]}},{"type":"Feature","properties":{"BridgeNumber":"B150","BridgeName":"Agora Bridge","LinkID":"B252_Link02","RoadNumber":"B252","RoadClass":"B","RoadDescrPrincipal":"Puranga Bridge - Corner Kilak - Pejule - Acholibur","Region":"Northern","Station":"Kitgum","OverallCondition":"Marginal","OverallConditionRating":4,"AADT2026":5225.34},"geometry":{"type":"Point","coordinates":[32.91386,3.14379]}},{"type":"Feature","properties":{"BridgeNumber":"B151","BridgeName":"Agago Bridge","LinkID":"B252_Link02","RoadNumber":"B252","RoadClass":"B","RoadDescrPrincipal":"Puranga Bridge - Corner Kilak - Pejule - Acholibur","Region":"Northern","Station":"Kitgum","OverallCondition":"Satisfactory","OverallConditionRating":6,"AADT2026":5225.34},"geometry":{"type":"Point","coordinates":[32.964726,2.839816]}},{"type":"Feature","properties":{"BridgeNumber":"B154","BridgeName":"Pager Bridge","LinkID":"B252_Link03","RoadNumber":"B252","RoadClass":"B","RoadDescrPrincipal":"Acholibur - Kitgum","Region":"Northern","Station":"Kitgum","OverallCondition":"Good","OverallConditionRating":7,"AADT2026":2841.93},"geometry":{"type":"Point","coordinates":[32.879749,3.300847]}},{"type":"Feature","properties":{"BridgeNumber":"B156","BridgeName":"Aringa Bridge","LinkID":"B252_Link04","RoadNumber":"B252","RoadClass":"B","RoadDescrPrincipal":"Kitgum - Madi Opei","Region":"Northern","Station":"Kitgum","OverallCondition":"Good","OverallConditionRating":7,"AADT2026":3267.38},"geometry":{"type":"Point","coordinates":[33.004674,3.396426]}},{"type":"Feature","properties":{"BridgeNumber":"B158","BridgeName":"Sipi","LinkID":"B300_Link03","RoadNumber":"B300","RoadClass":"B","RoadDescrPrincipal":"Muyembe - Namalu","Region":"Eastern","Station":"Mbale","OverallCondition":"Fair","OverallConditionRating":5,"AADT2026":1443.05},"geometry":{"type":"Point","coordinates":[34.533875,1.574854]}},{"type":"Feature","properties":{"BridgeNumber":"B159","BridgeName":"Cheptui","LinkID":"B300_Link03","RoadNumber":"B300","RoadClass":"B","RoadDescrPrincipal":"Muyembe - Namalu","Region":"Eastern","Station":"Mbale","OverallCondition":"Critical","OverallConditionRating":1,"AADT2026":1443.05},"geometry":{"type":"Point","coordinates":[34.296604,1.335438]}},{"type":"Feature","properties":{"BridgeNumber":"B160","BridgeName":"Chesebere","LinkID":"B300_Link03","RoadNumber":"B300","RoadClass":"B","RoadDescrPrincipal":"Muyembe - Namalu","Region":"Eastern","Station":"Mbale","OverallCondition":"Beyond Repair","OverallConditionRating":0,"AADT2026":1443.05},"geometry":{"type":"Point","coordinates":[34.296604,1.335438]}},{"type":"Feature","properties":{"BridgeNumber":"B161","BridgeName":"Muyembe-Angutum","LinkID":"B300_Link03","RoadNumber":"B300","RoadClass":"B","RoadDescrPrincipal":"Muyembe - Namalu","Region":"Eastern","Station":"Mbale","OverallCondition":"Marginal","OverallConditionRating":4,"AADT2026":1443.05},"geometry":{"type":"Point","coordinates":[34.296604,1.335438]}},{"type":"Feature","properties":{"BridgeNumber":"B162","BridgeName":"Road Over River","LinkID":"B300_Link03","RoadNumber":"B300","RoadClass":"B","RoadDescrPrincipal":"Muyembe - Namalu","Region":"Eastern","Station":"Mbale","OverallCondition":"Very Poor","OverallConditionRating":2,"AADT2026":1443.05},"geometry":{"type":"Point","coordinates":[34.296604,1.335438]}},{"type":"Feature","properties":{"BridgeNumber":"B163","BridgeName":"Seretyo","LinkID":"B300_Link03","RoadNumber":"B300","RoadClass":"B","RoadDescrPrincipal":"Muyembe - Namalu","Region":"Eastern","Station":"Mbale","OverallCondition":"Good","OverallConditionRating":7,"AADT2026":1443.05},"geometry":{"type":"Point","coordinates":[34.493902,1.538957]}},{"type":"Feature","properties":{"BridgeNumber":"B164","BridgeName":"Okilim","LinkID":"B300_Link03","RoadNumber":"B300","RoadClass":"B","RoadDescrPrincipal":"Muyembe - Namalu","Region":"Eastern","Station":"Mbale","OverallCondition":"Beyond Repair","OverallConditionRating":0,"AADT2026":1443.05},"geometry":{"type":"Point","coordinates":[34.534174,1.575484]}},{"type":"Feature","properties":{"BridgeNumber":"B165","BridgeName":"Lorengedwat","LinkID":"B300_Link05","RoadNumber":"B300","RoadClass":"B","RoadDescrPrincipal":"Lokapel - Ariamoi","Region":"North Eastern","Station":"Moroto","OverallCondition":"Good","OverallConditionRating":7,"AADT2026":473.04},"geometry":{"type":"Point","coordinates":[34.692301,2.150103]}},{"type":"Feature","properties":{"BridgeNumber":"B166","BridgeName":"Namalera","LinkID":"B300_Link05","RoadNumber":"B300","RoadClass":"B","RoadDescrPrincipal":"Lokapel - Ariamoi","Region":"North Eastern","Station":"Moroto","OverallCondition":"Good","OverallConditionRating":7,"AADT2026":473.04},"geometry":{"type":"Point","coordinates":[34.69344,2.148754]}},{"type":"Feature","properties":{"BridgeNumber":"B167","BridgeName":"Lokali","LinkID":"B300_Link05","RoadNumber":"B300","RoadClass":"B","RoadDescrPrincipal":"Lokapel - Ariamoi","Region":"North Eastern","Station":"Moroto","OverallCondition":"Good","OverallConditionRating":7,"AADT2026":473.04},"geometry":{"type":"Point","coordinates":[34.692301,2.150103]}},{"type":"Feature","properties":{"BridgeNumber":"B168","BridgeName":"Nadunget","LinkID":"B300_Link06","RoadNumber":"B300","RoadClass":"B","RoadDescrPrincipal":"Ariamoi - Moroto","Region":"North Eastern","Station":"Moroto","OverallCondition":"Good","OverallConditionRating":7,"AADT2026":473.04},"geometry":{"type":"Point","coordinates":[34.568435,2.504801]}},{"type":"Feature","properties":{"BridgeNumber":"B169","BridgeName":"Lokichar","LinkID":"B301_Link01","RoadNumber":"B301","RoadClass":"B","RoadDescrPrincipal":"Ariamoi - Kaladonapal - Kaperimoru","Region":"North Eastern","Station":"Kotido","OverallCondition":"Fair","OverallConditionRating":5,"AADT2026":1147.52},"geometry":{"type":"Point","coordinates":[34.265879,2.777574]}},{"type":"Feature","properties":{"BridgeNumber":"B170","BridgeName":"Danyangala","LinkID":"B301_Link02","RoadNumber":"B301","RoadClass":"B","RoadDescrPrincipal":"Kapelimoru - Kotido","Region":"North Eastern","Station":"Kotido","OverallCondition":"Good","OverallConditionRating":7,"AADT2026":1147.52},"geometry":{"type":"Point","coordinates":[34.18944,2.971109]}},{"type":"Feature","properties":{"BridgeNumber":"B171","BridgeName":"Kotido- Kailong","LinkID":"B302_Link01","RoadNumber":"B302","RoadClass":"B","RoadDescrPrincipal":"Kotido - Abim","Region":"North Eastern","Station":"Kotido","OverallCondition":"Good","OverallConditionRating":7,"AADT2026":1022.18},"geometry":{"type":"Point","coordinates":[33.660627,2.71419]}},{"type":"Feature","properties":{"BridgeNumber":"B172","BridgeName":"Katulangole","LinkID":"B301_Link03","RoadNumber":"B301","RoadClass":"B","RoadDescrPrincipal":"Kotido - Apaan - Kabong","Region":"North Eastern","Station":"Kotido","OverallCondition":"Satisfactory","OverallConditionRating":6,"AADT2026":717.02},"geometry":{"type":"Point","coordinates":[34.07841,3.010695]}},{"type":"Feature","properties":{"BridgeNumber":"B173","BridgeName":"Lochom","LinkID":"B301_Link03","RoadNumber":"B301","RoadClass":"B","RoadDescrPrincipal":"Kotido - Apaan - Kabong","Region":"North Eastern","Station":"Kotido","OverallCondition":"Good","OverallConditionRating":7,"AADT2026":717.02},"geometry":{"type":"Point","coordinates":[34.07841,3.010695]}},{"type":"Feature","properties":{"BridgeNumber":"B174","BridgeName":"Lomusan","LinkID":"B301_Link03","RoadNumber":"B301","RoadClass":"B","RoadDescrPrincipal":"Kotido - Apaan - Kabong","Region":"North Eastern","Station":"Kotido","OverallCondition":"Good","OverallConditionRating":7,"AADT2026":717.02},"geometry":{"type":"Point","coordinates":[34.07841,3.010695]}},{"type":"Feature","properties":{"BridgeNumber":"B175","BridgeName":"Kaabong","LinkID":"B301_Link03","RoadNumber":"B301","RoadClass":"B","RoadDescrPrincipal":"Kotido - Apaan - Kabong","Region":"North Eastern","Station":"Kotido","OverallCondition":"Good","OverallConditionRating":7,"AADT2026":717.02},"geometry":{"type":"Point","coordinates":[34.07841,3.010695]}},{"type":"Feature","properties":{"BridgeNumber":"B176","BridgeName":"Lakapelot","LinkID":"B301_Link03","RoadNumber":"B301","RoadClass":"B","RoadDescrPrincipal":"Kotido - Apaan - Kabong","Region":"North Eastern","Station":"Kotido","OverallCondition":"Critical","OverallConditionRating":1,"AADT2026":717.02},"geometry":{"type":"Point","coordinates":[34.07841,3.010695]}},{"type":"Feature","properties":{"BridgeNumber":"B177","BridgeName":"Yadalala","LinkID":"B301_Link03","RoadNumber":"B301","RoadClass":"B","RoadDescrPrincipal":"Kotido - Apaan - Kabong","Region":"North Eastern","Station":"Kotido","OverallCondition":"Good","OverallConditionRating":7,"AADT2026":717.02},"geometry":{"type":"Point","coordinates":[34.07841,3.010695]}},{"type":"Feature","properties":{"BridgeNumber":"B178","BridgeName":"Nariamabune","LinkID":"B301_Link03","RoadNumber":"B301","RoadClass":"B","RoadDescrPrincipal":"Kotido - Apaan - Kabong","Region":"North Eastern","Station":"Kotido","OverallCondition":"Good","OverallConditionRating":7,"AADT2026":717.02},"geometry":{"type":"Point","coordinates":[34.07841,3.010695]}},{"type":"Feature","properties":{"BridgeNumber":"B179","BridgeName":"Loyoroit","LinkID":"B302_Link01","RoadNumber":"B302","RoadClass":"B","RoadDescrPrincipal":"Kotido - Abim","Region":"North Eastern","Station":"Kotido","OverallCondition":"Good","OverallConditionRating":7,"AADT2026":1022.18},"geometry":{"type":"Point","coordinates":[33.778937,2.835157]}},{"type":"Feature","properties":{"BridgeNumber":"B181","BridgeName":"Otaka Bridge","LinkID":"B302_Link02","RoadNumber":"B302","RoadClass":"B","RoadDescrPrincipal":"Abim - Kilak","Region":"Northern","Station":"Kitgum","OverallCondition":"Good","OverallConditionRating":7,"AADT2026":861.37},"geometry":{"type":"Point","coordinates":[33.614885,2.712747]}},{"type":"Feature","properties":{"BridgeNumber":"B182","BridgeName":"Komolo","LinkID":"B303_Link02","RoadNumber":"B303","RoadClass":"B","RoadDescrPrincipal":"Arapai - Katakwi - Iriri","Region":"North Eastern","Station":"Soroti","OverallCondition":"Good","OverallConditionRating":7,"AADT2026":2002.57},"geometry":{"type":"Point","coordinates":[33.778598,1.865801]}},{"type":"Feature","properties":{"BridgeNumber":"B183","BridgeName":"Getom","LinkID":"B303_Link02","RoadNumber":"B303","RoadClass":"B","RoadDescrPrincipal":"Arapai - Katakwi - Iriri","Region":"North Eastern","Station":"Soroti","OverallCondition":"Marginal","OverallConditionRating":4,"AADT2026":2002.57},"geometry":{"type":"Point","coordinates":[34.142034,2.044835]}},{"type":"Feature","properties":{"BridgeNumber":"B184","BridgeName":"Akangole","LinkID":"B303_Link02","RoadNumber":"B303","RoadClass":"B","RoadDescrPrincipal":"Arapai - Katakwi - Iriri","Region":"North Eastern","Station":"Soroti","OverallCondition":"Good","OverallConditionRating":7,"AADT2026":2002.57},"geometry":{"type":"Point","coordinates":[33.97947,1.919301]}},{"type":"Feature","properties":{"BridgeNumber":"B185","BridgeName":"Apak Bridge","LinkID":"C650_Link01","RoadNumber":"C650","RoadClass":"C","RoadDescrPrincipal":"Lira - Akia","Region":"Northern","Station":"Lira","OverallCondition":"Good","OverallConditionRating":7,"AADT2026":469.76},"geometry":{"type":"Point","coordinates":[32.97404,2.23975]}},{"type":"Feature","properties":{"BridgeNumber":"B186","BridgeName":"Apak Bridge","LinkID":"C650_Link01","RoadNumber":"C650","RoadClass":"C","RoadDescrPrincipal":"Lira - Akia","Region":"Northern","Station":"Lira","OverallCondition":"Good","OverallConditionRating":7,"AADT2026":469.76},"geometry":{"type":"Point","coordinates":[32.97404,2.23975]}},{"type":"Feature","properties":{"BridgeNumber":"B187","BridgeName":"Tochi (Awol) Bridge","LinkID":"C655_Link01","RoadNumber":"C655","RoadClass":"C","RoadDescrPrincipal":"Bobi-Aboke-Ayer","Region":"Northern","Station":"Gulu","OverallCondition":"Good","OverallConditionRating":7,"AADT2026":1773.28},"geometry":{"type":"Point","coordinates":[32.404081,2.525141]}},{"type":"Feature","properties":{"BridgeNumber":"B188","BridgeName":"Odek","LinkID":"C680_Link02","RoadNumber":"C680","RoadClass":"C","RoadDescrPrincipal":"Opit-Rwackoko","Region":"Northern","Station":"Gulu","OverallCondition":"Good","OverallConditionRating":7,"AADT2026":1515.38},"geometry":{"type":"Point","coordinates":[32.73203,2.68058]}},{"type":"Feature","properties":{"BridgeNumber":"B189","BridgeName":"Awere Bridge","LinkID":"C680_Link02","RoadNumber":"C680","RoadClass":"C","RoadDescrPrincipal":"Opit-Rwackoko","Region":"Northern","Station":"Gulu","OverallCondition":"Poor","OverallConditionRating":3,"AADT2026":1515.38},"geometry":{"type":"Point","coordinates":[32.820169,2.704904]}},{"type":"Feature","properties":{"BridgeNumber":"B192","BridgeName":"Ajan Bridge","LinkID":"C681_Link01","RoadNumber":"C681","RoadClass":"C","RoadDescrPrincipal":"Acholibur - Aswa","Region":"Northern","Station":"Kitgum","OverallCondition":"Good","OverallConditionRating":7,"AADT2026":1358.82},"geometry":{"type":"Point","coordinates":[32.764804,3.028109]}},{"type":"Feature","properties":{"BridgeNumber":"B195","BridgeName":"Aswa Bridge","LinkID":"C681_Link02","RoadNumber":"C681","RoadClass":"C","RoadDescrPrincipal":"Aswa - Gulu","Region":"Northern","Station":"Gulu","OverallCondition":"Good","OverallConditionRating":7,"AADT2026":1834.47},"geometry":{"type":"Point","coordinates":[32.581385,2.9585]}},{"type":"Feature","properties":{"BridgeNumber":"B196","BridgeName":"Unyama Bridge","LinkID":"C682_Link01","RoadNumber":"C682","RoadClass":"C","RoadDescrPrincipal":"Gulu - Logere - Adee","Region":"Northern","Station":"Gulu","OverallCondition":"Marginal","OverallConditionRating":4,"AADT2026":1651.62},"geometry":{"type":"Point","coordinates":[32.289533,2.955283]}},{"type":"Feature","properties":{"BridgeNumber":"B197","BridgeName":"Nyarwotho","LinkID":"C745_Link01","RoadNumber":"C745","RoadClass":"C","RoadDescrPrincipal":"Nebbi - Goli","Region":"Northern","Station":"Arua","OverallCondition":"Good","OverallConditionRating":7,"AADT2026":1411.4},"geometry":{"type":"Point","coordinates":[31.030242,2.378095]}},{"type":"Feature","properties":{"BridgeNumber":"B198","BridgeName":"Unyama Bridge","LinkID":"C700_Link01","RoadNumber":"C700","RoadClass":"C","RoadDescrPrincipal":"Atiak-Palabek","Region":"Northern","Station":"Kitgum","OverallCondition":"Good","OverallConditionRating":7,"AADT2026":901.1},"geometry":{"type":"Point","coordinates":[32.206822,3.265451]}},{"type":"Feature","properties":{"BridgeNumber":"B199","BridgeName":"Aswa Bridge","LinkID":"C700_Link01","RoadNumber":"C700","RoadClass":"C","RoadDescrPrincipal":"Atiak-Palabek","Region":"Northern","Station":"Kitgum","OverallCondition":"Good","OverallConditionRating":7,"AADT2026":901.1},"geometry":{"type":"Point","coordinates":[32.361863,3.298129]}},{"type":"Feature","properties":{"BridgeNumber":"B200","BridgeName":"Awich Bridge","LinkID":"C700_Link01","RoadNumber":"C700","RoadClass":"C","RoadDescrPrincipal":"Atiak-Palabek","Region":"Northern","Station":"Kitgum","OverallCondition":"Marginal","OverallConditionRating":4,"AADT2026":901.1},"geometry":{"type":"Point","coordinates":[32.412506,3.368149]}},{"type":"Feature","properties":{"BridgeNumber":"B201","BridgeName":"Burkung","LinkID":"C700_Link01","RoadNumber":"C700","RoadClass":"C","RoadDescrPrincipal":"Atiak-Palabek","Region":"Northern","Station":"Kitgum","OverallCondition":"Fair","OverallConditionRating":5,"AADT2026":901.1},"geometry":{"type":"Point","coordinates":[32.521686,3.425431]}},{"type":"Feature","properties":{"BridgeNumber":"B202","BridgeName":"Lagwel Bridge","LinkID":"C701_Link01","RoadNumber":"C701","RoadClass":"C","RoadDescrPrincipal":"Kitgum-Lukung-Ngomoromo","Region":"Northern","Station":"Kitgum","OverallCondition":"Satisfactory","OverallConditionRating":6,"AADT2026":365.7},"geometry":{"type":"Point","coordinates":[32.854161,3.438764]}},{"type":"Feature","properties":{"BridgeNumber":"B203","BridgeName":"Limu Bridge","LinkID":"C701_Link01","RoadNumber":"C701","RoadClass":"C","RoadDescrPrincipal":"Kitgum-Lukung-Ngomoromo","Region":"Northern","Station":"Kitgum","OverallCondition":"Poor","OverallConditionRating":3,"AADT2026":365.7},"geometry":{"type":"Point","coordinates":[32.599589,3.66216]}},{"type":"Feature","properties":{"BridgeNumber":"B206","BridgeName":"Okura Bridge","LinkID":"C702_Link01","RoadNumber":"C702","RoadClass":"C","RoadDescrPrincipal":"Madi Opei-Agoro Hills","Region":"Northern","Station":"Kitgum","OverallCondition":"Good","OverallConditionRating":7,"AADT2026":365.7},"geometry":{"type":"Point","coordinates":[33.018501,3.794369]}},{"type":"Feature","properties":{"BridgeNumber":"B207","BridgeName":"Kitgum Matidi","LinkID":"C703_Link01","RoadNumber":"C703","RoadClass":"C","RoadDescrPrincipal":"Kitgum - Orom","Region":"Northern","Station":"Kitgum","OverallCondition":"Marginal","OverallConditionRating":4,"AADT2026":799.52},"geometry":{"type":"Point","coordinates":[33.055929,3.268654]}},{"type":"Feature","properties":{"BridgeNumber":"B208","BridgeName":"Oraa 1","LinkID":"C743_Link01","RoadNumber":"C743","RoadClass":"C","RoadDescrPrincipal":"Pakwach-Inde","Region":"Northern","Station":"Arua","OverallCondition":"Marginal","OverallConditionRating":4,"AADT2026":515.08},"geometry":{"type":"Point","coordinates":[31.393568,2.717795]}},{"type":"Feature","properties":{"BridgeNumber":"B209","BridgeName":"Oraa2 Bridge","LinkID":"C743_Link01","RoadNumber":"C743","RoadClass":"C","RoadDescrPrincipal":"Pakwach-Inde","Region":"Northern","Station":"Arua","OverallCondition":"Fair","OverallConditionRating":5,"AADT2026":515.08},"geometry":{"type":"Point","coordinates":[31.393566,2.717803]}},{"type":"Feature","properties":{"BridgeNumber":"B210","BridgeName":"Awa","LinkID":"C743_Link02","RoadNumber":"C743","RoadClass":"C","RoadDescrPrincipal":"Inde-Ocoko","Region":"Northern","Station":"Arua","OverallCondition":"Very Poor","OverallConditionRating":2,"AADT2026":1111.44},"geometry":{"type":"Point","coordinates":[31.147253,2.893707]}},{"type":"Feature","properties":{"BridgeNumber":"B211","BridgeName":"Allah Bridge","LinkID":"C743_Link02","RoadNumber":"C743","RoadClass":"C","RoadDescrPrincipal":"Inde-Ocoko","Region":"Northern","Station":"Arua","OverallCondition":"Good","OverallConditionRating":7,"AADT2026":1111.44},"geometry":{"type":"Point","coordinates":[31.071471,2.903333]}},{"type":"Feature","properties":{"BridgeNumber":"B212","BridgeName":"Olemika Bridge","LinkID":"C743_Link02","RoadNumber":"C743","RoadClass":"C","RoadDescrPrincipal":"Inde-Ocoko","Region":"Northern","Station":"Arua","OverallCondition":"Good","OverallConditionRating":7,"AADT2026":1111.44},"geometry":{"type":"Point","coordinates":[31.01939,2.914787]}},{"type":"Feature","properties":{"BridgeNumber":"B213","BridgeName":"Boro Bridge","LinkID":"C746_Link01","RoadNumber":"C746","RoadClass":"C","RoadDescrPrincipal":"Packwach - Panyimur","Region":"Northern","Station":"Arua","OverallCondition":"Satisfactory","OverallConditionRating":6,"AADT2026":515.08},"geometry":{"type":"Point","coordinates":[31.358268,2.322403]}},{"type":"Feature","properties":{"BridgeNumber":"B214","BridgeName":"Kivuje Bridge","LinkID":"C746_Link01","RoadNumber":"C746","RoadClass":"C","RoadDescrPrincipal":"Packwach - Panyimur","Region":"Northern","Station":"Arua","OverallCondition":"Poor","OverallConditionRating":3,"AADT2026":515.08},"geometry":{"type":"Point","coordinates":[31.336816,2.291343]}},{"type":"Feature","properties":{"BridgeNumber":"B215","BridgeName":"Lojoro","LinkID":"C960_Link01","RoadNumber":"C960","RoadClass":"C","RoadDescrPrincipal":"Angatun-Nabilatuk-Lokapel","Region":"North Eastern","Station":"Moroto","OverallCondition":"Fair","OverallConditionRating":5,"AADT2026":1323.61},"geometry":{"type":"Point","coordinates":[34.571462,2.025584]}},{"type":"Feature","properties":{"BridgeNumber":"B216","BridgeName":"Nakoyiti","LinkID":"C960_Link01","RoadNumber":"C960","RoadClass":"C","RoadDescrPrincipal":"Angatun-Nabilatuk-Lokapel","Region":"North Eastern","Station":"Moroto","OverallCondition":"Poor","OverallConditionRating":3,"AADT2026":1323.61},"geometry":{"type":"Point","coordinates":[34.69295,2.146408]}},{"type":"Feature","properties":{"BridgeNumber":"B217","BridgeName":"Chololo","LinkID":"C961_Link01","RoadNumber":"C961","RoadClass":"C","RoadDescrPrincipal":"Chosan to Amudat","Region":"North Eastern","Station":"Moroto","OverallCondition":"Beyond Repair","OverallConditionRating":0,"AADT2026":289.49},"geometry":{"type":"Point","coordinates":[34.943146,1.952938]}},{"type":"Feature","properties":{"BridgeNumber":"B218","BridgeName":"Kolo Bridge","LinkID":"C036_Link01","RoadNumber":"C036","RoadClass":"C","RoadDescrPrincipal":"Nambole - Kampala Industrial Park - Mukono","Region":"Central","Station":"Kampala","OverallCondition":"Fair","OverallConditionRating":5,"AADT2026":6245.76},"geometry":{"type":"Point","coordinates":[32.74637,0.36062]}},{"type":"Feature","properties":{"BridgeNumber":"B220","BridgeName":"Kigungu Bridge","LinkID":"C177_Link01","RoadNumber":"C177","RoadClass":"C","RoadDescrPrincipal":"Access to Kigungu","Region":"Central","Station":"Kampala","OverallCondition":"Satisfactory","OverallConditionRating":6,"AADT2026":3451.61},"geometry":{"type":"Point","coordinates":[32.43621,0.02792]}},{"type":"Feature","properties":{"BridgeNumber":"B222","BridgeName":"Mayanja","LinkID":"C187_Link01","RoadNumber":"C187","RoadClass":"C","RoadDescrPrincipal":"Namayumba - Kitalya Prison - Kamuli","Region":"Central","Station":"Kampala","OverallCondition":"Satisfactory","OverallConditionRating":6,"AADT2026":433.46},"geometry":{"type":"Point","coordinates":[32.250569,0.494279]}},{"type":"Feature","properties":{"BridgeNumber":"B223","BridgeName":"Bukoola","LinkID":"C271_Link04","RoadNumber":"C271","RoadClass":"C","RoadDescrPrincipal":"Kitumbi Bridge - Bukwiri","Region":"Western","Station":"Hoima","OverallCondition":"Fair","OverallConditionRating":5,"AADT2026":959.88},"geometry":{"type":"Point","coordinates":[31.625775,0.894128]}},{"type":"Feature","properties":{"BridgeNumber":"B225","BridgeName":"Mayanja Bridge","LinkID":"C320_Link01","RoadNumber":"C320","RoadClass":"C","RoadDescrPrincipal":"Kapeeka - Singo Military Barracks - Kituuma","Region":"Central","Station":"Luwero","OverallCondition":"Satisfactory","OverallConditionRating":6,"AADT2026":2535.91},"geometry":{"type":"Point","coordinates":[32.152593,0.687016]}},{"type":"Feature","properties":{"BridgeNumber":"B227","BridgeName":"Nkurungu","LinkID":"C373_Link02","RoadNumber":"C373","RoadClass":"C","RoadDescrPrincipal":"Kabujogera - Mahyoro Junction","Region":"Southern","Station":"Ibanda","OverallCondition":"Beyond Repair","OverallConditionRating":0,"AADT2026":1019.74},"geometry":{"type":"Point","coordinates":[30.346495,-0.102558]}},{"type":"Feature","properties":{"BridgeNumber":"B228","BridgeName":"Butembe Bridge","LinkID":"C452_Link01","RoadNumber":"C452","RoadClass":"C","RoadDescrPrincipal":"Rukungiri - Station Boundary","Region":"Southern","Station":"Kabale","OverallCondition":"Marginal","OverallConditionRating":4,"AADT2026":1058.01},"geometry":{"type":"Point","coordinates":[29.95874,-0.65191]}},{"type":"Feature","properties":{"BridgeNumber":"B229","BridgeName":"Kyonyo","LinkID":"C416_Link02","RoadNumber":"C416","RoadClass":"C","RoadDescrPrincipal":"Nsiika -  Bihanga -Katerera(Ishaka T/C)","Region":"Southern","Station":"Ibanda","OverallCondition":"Critical","OverallConditionRating":1,"AADT2026":1048.7},"geometry":{"type":"Point","coordinates":[30.385658,-0.276937]}},{"type":"Feature","properties":{"BridgeNumber":"B230","BridgeName":"Maziba Bridge","LinkID":"C424_Link01","RoadNumber":"C424","RoadClass":"C","RoadDescrPrincipal":"Old Kabale Road (Kigata - Kabunyonyi - N","Region":"Southern","Station":"Kabale","OverallCondition":"Fair","OverallConditionRating":5,"AADT2026":716.71},"geometry":{"type":"Point","coordinates":[30.068232,-1.304579]}},{"type":"Feature","properties":{"BridgeNumber":"B231","BridgeName":"Mpungu Bridge","LinkID":"C434_Link01","RoadNumber":"C434","RoadClass":"C","RoadDescrPrincipal":"Ikumba - Nfasha - Ruhija - Mpungu - Hama","Region":"Southern","Station":"Kabale","OverallCondition":"Fair","OverallConditionRating":5,"AADT2026":183.06},"geometry":{"type":"Point","coordinates":[29.690617,-0.987963]}},{"type":"Feature","properties":{"BridgeNumber":"B232","BridgeName":"Mucha Bridge","LinkID":"C436_Link01","RoadNumber":"C436","RoadClass":"C","RoadDescrPrincipal":"Kisoro - Nyabwishenya","Region":"Southern","Station":"Kabale","OverallCondition":"Marginal","OverallConditionRating":4,"AADT2026":780.32},"geometry":{"type":"Point","coordinates":[29.70794,-1.27031]}},{"type":"Feature","properties":{"BridgeNumber":"B233","BridgeName":"Kaku Bridge","LinkID":"C439_Link01","RoadNumber":"C439","RoadClass":"C","RoadDescrPrincipal":"Natete - Busanza - Mpaka","Region":"Southern","Station":"Kabale","OverallCondition":"Good","OverallConditionRating":7,"AADT2026":780.32},"geometry":{"type":"Point","coordinates":[29.611802,-1.19903]}},{"type":"Feature","properties":{"BridgeNumber":"B234","BridgeName":"Ishasha Bridge","LinkID":"C440_Link01","RoadNumber":"C440","RoadClass":"C","RoadDescrPrincipal":"Kanyantorogo - Butogota","Region":"Southern","Station":"Kabale","OverallCondition":"Satisfactory","OverallConditionRating":6,"AADT2026":1255.02},"geometry":{"type":"Point","coordinates":[29.640392,-0.841272]}},{"type":"Feature","properties":{"BridgeNumber":"B235","BridgeName":"Muyaga Bridge","LinkID":"C440_Link02","RoadNumber":"C440","RoadClass":"C","RoadDescrPrincipal":"Butogota - Kyeshero-Buhom","Region":"Southern","Station":"Kabale","OverallCondition":"Satisfactory","OverallConditionRating":6,"AADT2026":1255.02},"geometry":{"type":"Point","coordinates":[29.636593,-0.908522]}},{"type":"Feature","properties":{"BridgeNumber":"B236","BridgeName":"Kiruruma Bridge","LinkID":"C441_Link01","RoadNumber":"C441","RoadClass":"C","RoadDescrPrincipal":"Katojo - Kihihi","Region":"Southern","Station":"Kabale","OverallCondition":"Good","OverallConditionRating":7,"AADT2026":1255.02},"geometry":{"type":"Point","coordinates":[29.722196,-0.765182]}},{"type":"Feature","properties":{"BridgeNumber":"B237","BridgeName":"Mitano 01","LinkID":"C442_Link02","RoadNumber":"C442","RoadClass":"C","RoadDescrPrincipal":"Ruerere - Mitaano","Region":"Southern","Station":"Kabale","OverallCondition":"Good","OverallConditionRating":7,"AADT2026":1255.02},"geometry":{"type":"Point","coordinates":[29.786006,-0.827071]}},{"type":"Feature","properties":{"BridgeNumber":"B238","BridgeName":"Kabaale Bridge","LinkID":"C442_Link01","RoadNumber":"C442","RoadClass":"C","RoadDescrPrincipal":"Rukungiri - Ruerere","Region":"Southern","Station":"Kabale","OverallCondition":"Marginal","OverallConditionRating":4,"AADT2026":820.65},"geometry":{"type":"Point","coordinates":[29.913584,-0.797383]}},{"type":"Feature","properties":{"BridgeNumber":"B239","BridgeName":"Kakingo Bridge","LinkID":"C445_Link02","RoadNumber":"C445","RoadClass":"C","RoadDescrPrincipal":"Bugangari - Campbell","Region":"Southern","Station":"Kabale","OverallCondition":"Fair","OverallConditionRating":5,"AADT2026":1644.41},"geometry":{"type":"Point","coordinates":[29.8585,-0.68783]}},{"type":"Feature","properties":{"BridgeNumber":"B240","BridgeName":"Rushaya Bridge","LinkID":"C445_Link02","RoadNumber":"C445","RoadClass":"C","RoadDescrPrincipal":"Bugangari - Campbell","Region":"Southern","Station":"Kabale","OverallCondition":"Good","OverallConditionRating":7,"AADT2026":1644.41},"geometry":{"type":"Point","coordinates":[29.8585,-0.68783]}},{"type":"Feature","properties":{"BridgeNumber":"B241","BridgeName":"Mitano 02 Bridge","LinkID":"C446_Link01","RoadNumber":"C446","RoadClass":"C","RoadDescrPrincipal":"Bukurungu - Nyamirama","Region":"Southern","Station":"Kabale","OverallCondition":"Fair","OverallConditionRating":5,"AADT2026":2246.32},"geometry":{"type":"Point","coordinates":[29.748611,-0.693549]}},{"type":"Feature","properties":{"BridgeNumber":"B243","BridgeName":"Rwamuganga Bridge","LinkID":"C447_Link01","RoadNumber":"C447","RoadClass":"C","RoadDescrPrincipal":"Kabwohe - Kitagata - Kabira(Mitooma)","Region":"Southern","Station":"Mbarara","OverallCondition":"Poor","OverallConditionRating":3,"AADT2026":698.1},"geometry":{"type":"Point","coordinates":[29.98664,-0.71509]}},{"type":"Feature","properties":{"BridgeNumber":"B246","BridgeName":"Ndurumo Bridge","LinkID":"C447_Link01","RoadNumber":"C447","RoadClass":"C","RoadDescrPrincipal":"Kabwohe - Kitagata - Kabira(Mitooma)","Region":"Southern","Station":"Mbarara","OverallCondition":"Poor","OverallConditionRating":3,"AADT2026":698.1},"geometry":{"type":"Point","coordinates":[29.98664,-0.71509]}},{"type":"Feature","properties":{"BridgeNumber":"B248","BridgeName":"Katizi Bridge","LinkID":"C447_Link02","RoadNumber":"C447","RoadClass":"C","RoadDescrPrincipal":"Kabira - Rukungiri","Region":"Southern","Station":"Kabale","OverallCondition":"Marginal","OverallConditionRating":4,"AADT2026":698.1},"geometry":{"type":"Point","coordinates":[29.982513,-0.722342]}},{"type":"Feature","properties":{"BridgeNumber":"B249","BridgeName":"Kyambura Bridge","LinkID":"C450_Link01","RoadNumber":"C450","RoadClass":"C","RoadDescrPrincipal":"Kyambura - Katerera","Region":"Southern","Station":"Mbarara","OverallCondition":"Marginal","OverallConditionRating":4,"AADT2026":1234.86},"geometry":{"type":"Point","coordinates":[30.105952,-0.20598]}},{"type":"Feature","properties":{"BridgeNumber":"B251","BridgeName":"Enshya Bridge","LinkID":"C519_Link01","RoadNumber":"C519","RoadClass":"C","RoadDescrPrincipal":"Nkenda - Bugoye","Region":"Southern","Station":"Kasese","OverallCondition":"Fair","OverallConditionRating":5,"AADT2026":1934.51},"geometry":{"type":"Point","coordinates":[30.087621,0.319838]}},{"type":"Feature","properties":{"BridgeNumber":"B252","BridgeName":"Rubiriha","LinkID":"C520_Link02","RoadNumber":"C520","RoadClass":"C","RoadDescrPrincipal":"Kithoma - Kiraro","Region":"Southern","Station":"Kasese","OverallCondition":"Marginal","OverallConditionRating":4,"AADT2026":1287.6},"geometry":{"type":"Point","coordinates":[29.749138,0.081074]}},{"type":"Feature","properties":{"BridgeNumber":"B253","BridgeName":"Kabira Bridge","LinkID":"C520_Link02","RoadNumber":"C520","RoadClass":"C","RoadDescrPrincipal":"Kithoma - Kiraro","Region":"Southern","Station":"Kasese","OverallCondition":"Poor","OverallConditionRating":3,"AADT2026":1287.6},"geometry":{"type":"Point","coordinates":[29.7408,0.100971]}},{"type":"Feature","properties":{"BridgeNumber":"B255","BridgeName":"Ruzairwe","LinkID":"C553_Link01","RoadNumber":"C553","RoadClass":"C","RoadDescrPrincipal":"Kibaale-Kyebando - Pacwa","Region":"Western","Station":"Hoima","OverallCondition":"Satisfactory","OverallConditionRating":6,"AADT2026":1054.9},"geometry":{"type":"Point","coordinates":[31.015373,1.107453]}},{"type":"Feature","properties":{"BridgeNumber":"B256","BridgeName":"Perepa","LinkID":"C556_Link01","RoadNumber":"C556","RoadClass":"C","RoadDescrPrincipal":"Bukuku - Rubona","Region":"Western","Station":"Fort Portal","OverallCondition":"Marginal","OverallConditionRating":4,"AADT2026":2801.7},"geometry":{"type":"Point","coordinates":[30.15682,0.565936]}},{"type":"Feature","properties":{"BridgeNumber":"B258","BridgeName":"Mahoma","LinkID":"C556_Link01","RoadNumber":"C556","RoadClass":"C","RoadDescrPrincipal":"Bukuku - Rubona","Region":"Western","Station":"Fort Portal","OverallCondition":"Poor","OverallConditionRating":3,"AADT2026":2801.7},"geometry":{"type":"Point","coordinates":[30.159904,0.598037]}},{"type":"Feature","properties":{"BridgeNumber":"B259","BridgeName":"Dunga","LinkID":"C556_Link01","RoadNumber":"C556","RoadClass":"C","RoadDescrPrincipal":"Bukuku - Rubona","Region":"Western","Station":"Fort Portal","OverallCondition":"Fair","OverallConditionRating":5,"AADT2026":2801.7},"geometry":{"type":"Point","coordinates":[30.158229,0.620029]}},{"type":"Feature","properties":{"BridgeNumber":"B260","BridgeName":"Nyabuswa","LinkID":"C556_Link01","RoadNumber":"C556","RoadClass":"C","RoadDescrPrincipal":"Bukuku - Rubona","Region":"Western","Station":"Fort Portal","OverallCondition":"Poor","OverallConditionRating":3,"AADT2026":2801.7},"geometry":{"type":"Point","coordinates":[30.158456,0.628505]}},{"type":"Feature","properties":{"BridgeNumber":"B261","BridgeName":"Mpanga","LinkID":"C556_Link01","RoadNumber":"C556","RoadClass":"C","RoadDescrPrincipal":"Bukuku - Rubona","Region":"Western","Station":"Fort Portal","OverallCondition":"Marginal","OverallConditionRating":4,"AADT2026":2801.7},"geometry":{"type":"Point","coordinates":[30.172581,0.656246]}},{"type":"Feature","properties":{"BridgeNumber":"B263","BridgeName":"Dongoi","LinkID":"C575_Link01","RoadNumber":"C575","RoadClass":"C","RoadDescrPrincipal":"Kibuku - Nyabushozi","Region":"Western","Station":"Fort Portal","OverallCondition":"Marginal","OverallConditionRating":4,"AADT2026":4005.53},"geometry":{"type":"Point","coordinates":[30.238161,0.929352]}},{"type":"Feature","properties":{"BridgeNumber":"B264","BridgeName":"Murungu","LinkID":"C565_Link01","RoadNumber":"C565","RoadClass":"C","RoadDescrPrincipal":"Kyenzige-Rugashali-Mabaale","Region":"Western","Station":"Hoima","OverallCondition":"Poor","OverallConditionRating":3,"AADT2026":1054.9},"geometry":{"type":"Point","coordinates":[30.823398,1.065947]}},{"type":"Feature","properties":{"BridgeNumber":"B265","BridgeName":"Nguse","LinkID":"C566_Link02","RoadNumber":"C566","RoadClass":"C","RoadDescrPrincipal":"Bugwara-Kikwaya","Region":"Western","Station":"Hoima","OverallCondition":"Marginal","OverallConditionRating":4,"AADT2026":1456.7},"geometry":{"type":"Point","coordinates":[31.122624,1.024254]}},{"type":"Feature","properties":{"BridgeNumber":"B266","BridgeName":"Mpanga","LinkID":"C677_Link02","RoadNumber":"C677","RoadClass":"C","RoadDescrPrincipal":"Kalongo - Kitgum Matidi","Region":"Northern","Station":"Kitgum","OverallCondition":"Marginal","OverallConditionRating":4,"AADT2026":726.62},"geometry":{"type":"Point","coordinates":[33.196484,3.136152]}},{"type":"Feature","properties":{"BridgeNumber":"B267","BridgeName":"Mpanga","LinkID":"C214_Link01","RoadNumber":"C214","RoadClass":"C","RoadDescrPrincipal":"Lyantonde - Lumbugu","Region":"Central","Station":"Masaka","OverallCondition":"Good","OverallConditionRating":7,"AADT2026":673.76},"geometry":{"type":"Point","coordinates":[31.198485,-0.469054]}},{"type":"Feature","properties":{"BridgeNumber":"B268","BridgeName":"Mpanga Bridge","LinkID":"C373_Link01","RoadNumber":"C373","RoadClass":"C","RoadDescrPrincipal":"Ruhoko - Kabujogera","Region":"Southern","Station":"Ibanda","OverallCondition":"Fair","OverallConditionRating":5,"AADT2026":1234.86},"geometry":{"type":"Point","coordinates":[30.415326,-0.099435]}},{"type":"Feature","properties":{"BridgeNumber":"B269","BridgeName":"Kisenge","LinkID":"C575_Link01","RoadNumber":"C575","RoadClass":"C","RoadDescrPrincipal":"Kibuku - Nyabushozi","Region":"Western","Station":"Fort Portal","OverallCondition":"Marginal","OverallConditionRating":4,"AADT2026":4005.53},"geometry":{"type":"Point","coordinates":[30.238144,0.929306]}},{"type":"Feature","properties":{"BridgeNumber":"B270","BridgeName":"Wambabya","LinkID":"C592_Link02","RoadNumber":"C592","RoadClass":"C","RoadDescrPrincipal":"Buseruka-Kabaale","Region":"Western","Station":"Hoima","OverallCondition":"Satisfactory","OverallConditionRating":6,"AADT2026":2255.63},"geometry":{"type":"Point","coordinates":[31.114801,1.529975]}},{"type":"Feature","properties":{"BridgeNumber":"B271","BridgeName":"Wambabya","LinkID":"C594_Link01","RoadNumber":"C594","RoadClass":"C","RoadDescrPrincipal":"Bugambe-Kidoma","Region":"Western","Station":"Hoima","OverallCondition":"Very Poor","OverallConditionRating":2,"AADT2026":1753},"geometry":{"type":"Point","coordinates":[31.182025,1.375425]}},{"type":"Feature","properties":{"BridgeNumber":"B272","BridgeName":"Wambabya","LinkID":"C595_Link01","RoadNumber":"C595","RoadClass":"C","RoadDescrPrincipal":"Mairirwe-Wambabya","Region":"Western","Station":"Hoima","OverallCondition":"Marginal","OverallConditionRating":4,"AADT2026":1559.08},"geometry":{"type":"Point","coordinates":[31.248755,1.381282]}},{"type":"Feature","properties":{"BridgeNumber":"B274","BridgeName":"Wambabya","LinkID":"C601_Link01","RoadNumber":"C601","RoadClass":"C","RoadDescrPrincipal":"Buseruka-Kigorobya","Region":"Western","Station":"Hoima","OverallCondition":"Very Poor","OverallConditionRating":2,"AADT2026":1559.08},"geometry":{"type":"Point","coordinates":[31.210389,1.569822]}},{"type":"Feature","properties":{"BridgeNumber":"B275","BridgeName":"Wambabya","LinkID":"M3_Link01","RoadNumber":"M3","RoadClass":"M","RoadDescrPrincipal":"Kampala - Entebbe Expressway","Region":"Central","Station":"Kampala","OverallCondition":"Beyond Repair","OverallConditionRating":0,"AADT2026":20711.35},"geometry":{"type":"Point","coordinates":[32.512374,0.300095]}},{"type":"Feature","properties":{"BridgeNumber":"B276","BridgeName":"Kanangalo","LinkID":"C627_Link02","RoadNumber":"C627","RoadClass":"C","RoadDescrPrincipal":"Nkooko-Nalweyo","Region":"Western","Station":"Hoima","OverallCondition":"Poor","OverallConditionRating":3,"AADT2026":1014.57},"geometry":{"type":"Point","coordinates":[31.446553,0.954584]}},{"type":"Feature","properties":{"BridgeNumber":"B277","BridgeName":"Okole Bridge 1","LinkID":"C662_Link01","RoadNumber":"C662","RoadClass":"C","RoadDescrPrincipal":"Aduku-Teboke-Loro","Region":"Northern","Station":"Lira","OverallCondition":"Beyond Repair","OverallConditionRating":0,"AADT2026":1801},"geometry":{"type":"Point","coordinates":[32.572028,2.202482]}},{"type":"Feature","properties":{"BridgeNumber":"B278","BridgeName":"Walabam","LinkID":"M3_Link01","RoadNumber":"M3","RoadClass":"M","RoadDescrPrincipal":"Kampala - Entebbe Expressway","Region":"Central","Station":"Kampala","OverallCondition":"Beyond Repair","OverallConditionRating":0,"AADT2026":20711.35},"geometry":{"type":"Point","coordinates":[32.522073,0.249812]}},{"type":"Feature","properties":{"BridgeNumber":"B279","BridgeName":"Tochi Bridge","LinkID":"M3_Link01","RoadNumber":"M3","RoadClass":"M","RoadDescrPrincipal":"Kampala - Entebbe Expressway","Region":"Central","Station":"Kampala","OverallCondition":"Fair","OverallConditionRating":5,"AADT2026":20711.35},"geometry":{"type":"Point","coordinates":[32.510721,0.103762]}},